FID,longitude,latitude,data_hora_gmt,satelite,municipio,estado,pais,geom
focos_ams_ontem_hoje_ref.00029893-5544-34ab-8224-8849c82c99ed,-68.246,-10.562,2019-09-19T17:40:00,AQUA_M-T,XAPURI,ACRE,Brasil,POINT (-10.562 -68.246)
focos_ams_ontem_hoje_ref.000507bf-e776-3119-ad47-3ab9e66ce5b8,-48.99,-16.832,2019-09-20T16:40:00,AQUA_M-T,BELA VISTA DE GOIÁS,GOIÁS,Brasil,POINT (-16.832 -48.99)
focos_ams_ontem_hoje_ref.000d0254-7c30-3d63-a87c-5b36a8312ff2,-49.974,-5.707,2019-09-20T16:45:00,AQUA_M-T,MARABÁ,PARÁ,Brasil,POINT (-5.707 -49.974)
focos_ams_ontem_hoje_ref.002bcfd5-23fe-35b1-9dfb-6b84bd0e113b,-59.734,-7.401,2019-09-19T17:40:00,AQUA_M-T,APUÍ,AMAZONAS,Brasil,POINT (-7.401 -59.734)
focos_ams_ontem_hoje_ref.002fc797-0933-3562-9fa8-e0e026adb30c,-43.006,-7.325,2019-09-20T16:45:00,AQUA_M-T,FLORIANO,PIAUÍ,Brasil,POINT (-7.325 -43.006)
focos_ams_ontem_hoje_ref.0033f5e5-bdef-38e8-acb6-0738e195f884,-50.722,-17.946,2019-09-20T16:40:00,AQUA_M-T,RIO VERDE,GOIÁS,Brasil,POINT (-17.946 -50.722)
focos_ams_ontem_hoje_ref.005b0000-2bda-3dc7-a348-05eeedbc02c2,-66.986,-14.994,2019-09-19T17:40:00,AQUA_M-T,José Ballivián,El Beni,Bolivia,POINT (-14.994 -66.986)
focos_ams_ontem_hoje_ref.0068445d-2aeb-3e31-a7b6-efdde0e3e061,-49.287,-5.936,2019-09-20T16:45:00,AQUA_M-T,ELDORADO DO CARAJÁS,PARÁ,Brasil,POINT (-5.936 -49.287)
focos_ams_ontem_hoje_ref.0069c15b-2eae-3e16-aa61-457334ab7523,-41.178,-18.918,2019-09-20T16:40:00,AQUA_M-T,CONSELHEIRO PENA,MINAS GERAIS,Brasil,POINT (-18.918 -41.178)
focos_ams_ontem_hoje_ref.0072ea65-93f9-3959-909b-5ca55fa090c8,-60.612,-7.371,2019-09-19T17:40:00,AQUA_M-T,APUÍ,AMAZONAS,Brasil,POINT (-7.371 -60.612)
focos_ams_ontem_hoje_ref.0074f2cc-ba36-39b0-9003-832e011d5776,-56.219,-20.003,2019-09-19T17:35:00,AQUA_M-T,AQUIDAUANA,MATO GROSSO DO SUL,Brasil,POINT (-20.003 -56.219)
focos_ams_ontem_hoje_ref.008219de-ad8f-3c1d-88a1-67f966c74ebc,-56.299,-28.664,2019-09-20T18:15:00,AQUA_M-T,Santo Tomé,Corrientes,Argentina,POINT (-28.664 -56.299)
focos_ams_ontem_hoje_ref.00829be7-84c6-3189-abb7-2edd19354049,-69.971,-7.967,2019-09-19T17:40:00,AQUA_M-T,FEIJÓ,ACRE,Brasil,POINT (-7.967 -69.971)
focos_ams_ontem_hoje_ref.00866274-7573-3ebd-afe9-9cad18545a65,-50.194,-17.758,2019-09-20T16:40:00,AQUA_M-T,EDÉIA,GOIÁS,Brasil,POINT (-17.758 -50.194)
focos_ams_ontem_hoje_ref.008f43cb-3b16-3337-8eca-cef1fec6b1d5,-43.714,-8.506,2019-09-20T16:45:00,AQUA_M-T,ALVORADA DO GURGUÉIA,PIAUÍ,Brasil,POINT (-8.506 -43.714)
focos_ams_ontem_hoje_ref.00ba5088-bc81-3d26-87af-1f73253136bc,-60.105,-5.246,2019-09-19T17:40:00,AQUA_M-T,NOVO ARIPUANÃ,AMAZONAS,Brasil,POINT (-5.246 -60.105)
focos_ams_ontem_hoje_ref.00e267d9-d3ce-37c8-b58c-7e21373b93a2,-60.382,-17.509,2019-09-20T18:20:00,AQUA_M-T,Chiquitos,Santa Cruz,Bolivia,POINT (-17.509 -60.382)
focos_ams_ontem_hoje_ref.00e9b4dc-3e15-3ee5-ba2c-a329a587a5c0,-62.819,-27.735,2019-09-19T17:35:00,AQUA_M-T,Moreno,Santiago del Estero,Argentina,POINT (-27.735 -62.819)
focos_ams_ontem_hoje_ref.00ec9d4e-c9d8-373f-8148-6629c3c60029,-59.594,-16.42,2019-09-19T17:35:00,AQUA_M-T,José Miguel de Velasco,Santa Cruz,Bolivia,POINT (-16.42 -59.594)
focos_ams_ontem_hoje_ref.00eeeee1-99c1-33c1-ac69-1f9f1760f38a,-44.452,-8.176,2019-09-20T16:45:00,AQUA_M-T,URUÇUÍ,PIAUÍ,Brasil,POINT (-8.176 -44.452)
focos_ams_ontem_hoje_ref.00f42cee-c11f-3a2a-9177-ecf164ff80c5,-58.892,-19.712,2019-09-19T17:35:00,AQUA_M-T,Fuerte Olimpo,Alto Paraguay,Paraguay,POINT (-19.712 -58.892)
focos_ams_ontem_hoje_ref.00f5f1bd-3a4e-31af-9372-bfb7dc749f72,-54.335,-12.002,2019-09-20T16:45:00,AQUA_M-T,FELIZ NATAL,MATO GROSSO,Brasil,POINT (-12.002 -54.335)
focos_ams_ontem_hoje_ref.00ff7d7a-2e90-31d3-8962-c32d6d721092,-46.396,-9.396,2019-09-20T16:45:00,AQUA_M-T,ALTO PARNAÍBA,MARANHÃO,Brasil,POINT (-9.396 -46.396)
focos_ams_ontem_hoje_ref.0104b52c-9283-39a3-bd46-589bb4e00ec2,-63.228,-16.504,2019-09-19T17:40:00,AQUA_M-T,Ñuflo de Chávez,Santa Cruz,Bolivia,POINT (-16.504 -63.228)
focos_ams_ontem_hoje_ref.010b4500-1e2d-343b-acb5-74d41defd017,-48.067,-20.076,2019-09-20T16:40:00,AQUA_M-T,ÁGUA COMPRIDA,MINAS GERAIS,Brasil,POINT (-20.076 -48.067)
focos_ams_ontem_hoje_ref.010c1d95-a88b-33f7-b046-12ffe55c638f,-45.884,-10.086,2019-09-20T16:45:00,AQUA_M-T,ALTO PARNAÍBA,MARANHÃO,Brasil,POINT (-10.086 -45.884)
focos_ams_ontem_hoje_ref.0110802f-a628-3bd1-a19c-d0c073451253,-46.604,-18.775,2019-09-20T16:40:00,AQUA_M-T,PATOS DE MINAS,MINAS GERAIS,Brasil,POINT (-18.775 -46.604)
focos_ams_ontem_hoje_ref.011aadd1-f03e-3280-b0aa-b24560b0c8be,-50.37,-3.119,2019-09-20T16:45:00,AQUA_M-T,PORTEL,PARÁ,Brasil,POINT (-3.119 -50.37)
focos_ams_ontem_hoje_ref.011bbea6-f11c-34a3-9c35-f83f9f91ba46,-64.688,-9.733,2019-09-19T17:40:00,AQUA_M-T,PORTO VELHO,RONDÔNIA,Brasil,POINT (-9.733 -64.688)
focos_ams_ontem_hoje_ref.011eb568-de5e-35e1-b68f-5b4f7a99c93d,-59.954,-21.081,2019-09-19T17:35:00,AQUA_M-T,General Eugenio A. Garay,Boquerón,Paraguay,POINT (-21.081 -59.954)
focos_ams_ontem_hoje_ref.0132882b-0174-3f2c-8fd0-b9b0ef7dfd76,-46.069,-9.358,2019-09-20T16:45:00,AQUA_M-T,ALTO PARNAÍBA,MARANHÃO,Brasil,POINT (-9.358 -46.069)
focos_ams_ontem_hoje_ref.01448c44-7a3e-3764-a2b3-b31a7e237a25,-58.23,-10.218,2019-09-19T17:40:00,AQUA_M-T,NOVA BANDEIRANTES,MATO GROSSO,Brasil,POINT (-10.218 -58.23)
focos_ams_ontem_hoje_ref.014bab30-562c-3d72-a418-b30e95195cf8,-61.727,-15.57,2019-09-19T17:40:00,AQUA_M-T,Ñuflo de Chávez,Santa Cruz,Bolivia,POINT (-15.57 -61.727)
focos_ams_ontem_hoje_ref.0163abdc-b901-3977-9131-18494cfec8af,-65.019,-16.954,2019-09-19T17:35:00,AQUA_M-T,Carrasco,Cochabamba,Bolivia,POINT (-16.954 -65.019)
focos_ams_ontem_hoje_ref.01679722-cc71-3cc2-ae66-28ef849c349c,-50.211,-20.614,2019-09-19T17:35:00,AQUA_M-T,MAGDA,SÃO PAULO,Brasil,POINT (-20.614 -50.211)
focos_ams_ontem_hoje_ref.016ddb60-5206-3b8c-9bac-bc7cac090ba7,-45.267,-5.729,2019-09-20T16:45:00,AQUA_M-T,BARRA DO CORDA,MARANHÃO,Brasil,POINT (-5.729 -45.267)
focos_ams_ontem_hoje_ref.016fb065-c540-39e7-8532-2128fb0715f9,-51.869,-7.473,2019-09-19T17:40:00,AQUA_M-T,SÃO FÉLIX DO XINGU,PARÁ,Brasil,POINT (-7.473 -51.869)
focos_ams_ontem_hoje_ref.019b55a7-c8e7-354d-b31a-5ac26df5cba7,-53.014,-15.642,2019-09-20T16:40:00,AQUA_M-T,GENERAL CARNEIRO,MATO GROSSO,Brasil,POINT (-15.642 -53.014)
focos_ams_ontem_hoje_ref.01a50c66-8d51-369d-95f9-77f4d48e3239,-71.167,-8.82,2019-09-20T18:25:00,AQUA_M-T,FEIJÓ,ACRE,Brasil,POINT (-8.82 -71.167)
focos_ams_ontem_hoje_ref.01b0a4ea-acaf-3a5e-9556-3a7aa59b45f4,-56.153,-14.312,2019-09-19T17:40:00,AQUA_M-T,DIAMANTINO,MATO GROSSO,Brasil,POINT (-14.312 -56.153)
focos_ams_ontem_hoje_ref.01d5020f-8f4a-38cf-b792-b0955e689602,-43.495,-3.281,2019-09-19T16:00:00,AQUA_M-T,SÃO BENEDITO DO RIO PRETO,MARANHÃO,Brasil,POINT (-3.281 -43.495)
focos_ams_ontem_hoje_ref.01d78ead-e26e-338e-a9cf-3b2baf63cc2b,-44.535,-7.311,2019-09-20T16:45:00,AQUA_M-T,URUÇUÍ,PIAUÍ,Brasil,POINT (-7.311 -44.535)
focos_ams_ontem_hoje_ref.01ddde98-beb9-3cb3-b974-a589830d3aa3,-43.991,-6.33,2019-09-20T16:45:00,AQUA_M-T,PARAIBANO,MARANHÃO,Brasil,POINT (-6.33 -43.991)
focos_ams_ontem_hoje_ref.01dfc74f-1f66-3a1a-a504-499cdea3785a,-44.043,-8.587,2019-09-19T16:00:00,AQUA_M-T,ALVORADA DO GURGUÉIA,PIAUÍ,Brasil,POINT (-8.587 -44.043)
focos_ams_ontem_hoje_ref.01f0bafa-e19d-3955-bac9-be2697d60aac,-48.403,-11.061,2019-09-20T16:45:00,AQUA_M-T,IPUEIRAS,TOCANTINS,Brasil,POINT (-11.061 -48.403)
focos_ams_ontem_hoje_ref.01fea39c-a6b6-350a-b210-60dc003c388e,-58.89,-18.61,2019-09-19T17:35:00,AQUA_M-T,Chiquitos,Santa Cruz,Bolivia,POINT (-18.61 -58.89)
focos_ams_ontem_hoje_ref.020e4d4b-7b86-3601-ae38-2b69fcceb1a0,-59.303,-16.884,2019-09-19T17:35:00,AQUA_M-T,José Miguel de Velasco,Santa Cruz,Bolivia,POINT (-16.884 -59.303)
focos_ams_ontem_hoje_ref.02184a96-8424-39f8-8928-47bc91773846,-61.425,-8.902,2019-09-19T17:40:00,AQUA_M-T,COLNIZA,MATO GROSSO,Brasil,POINT (-8.902 -61.425)
focos_ams_ontem_hoje_ref.021e26dd-086d-3327-93af-7fa76c989b61,-59.037,-19.318,2019-09-19T17:35:00,AQUA_M-T,Chiquitos,Santa Cruz,Bolivia,POINT (-19.318 -59.037)
focos_ams_ontem_hoje_ref.0225cd6e-8be1-3ad1-a0e1-a11e6d188e3d,-50.256,-17.929,2019-09-19T17:35:00,AQUA_M-T,PORTEIRÃO,GOIÁS,Brasil,POINT (-17.929 -50.256)
focos_ams_ontem_hoje_ref.0226f274-afa8-3d46-b975-383ae24fba31,-50.686,-17.743,2019-09-19T17:35:00,AQUA_M-T,SANTA HELENA DE GOIÁS,GOIÁS,Brasil,POINT (-17.743 -50.686)
focos_ams_ontem_hoje_ref.022b059a-aff1-3034-9300-0db746870dc3,-55.348,-29.606,2019-09-20T18:15:00,AQUA_M-T,SÃO FRANCISCO DE ASSIS,RIO GRANDE DO SUL,Brasil,POINT (-29.606 -55.348)
focos_ams_ontem_hoje_ref.022d28c1-050c-3259-a68f-38394d450cb7,-44.445,-20.039,2019-09-20T16:40:00,AQUA_M-T,MATEUS LEME,MINAS GERAIS,Brasil,POINT (-20.039 -44.445)
focos_ams_ontem_hoje_ref.0230788e-6d6e-3b1a-a278-cbb917dd7122,-62.614,-8.748,2019-09-19T17:40:00,AQUA_M-T,PORTO VELHO,RONDÔNIA,Brasil,POINT (-8.748 -62.614)
focos_ams_ontem_hoje_ref.0233d675-2578-3d2f-ae08-bffc51bf7fb9,-45.787,-9.152,2019-09-20T16:45:00,AQUA_M-T,SANTA FILOMENA,PIAUÍ,Brasil,POINT (-9.152 -45.787)
focos_ams_ontem_hoje_ref.024a3fdd-766f-363c-8518-16ed8ecba7cb,-68.48,-14.565,2019-09-20T18:20:00,AQUA_M-T,Franz Tamayo,La Paz,Bolivia,POINT (-14.565 -68.48)
focos_ams_ontem_hoje_ref.025170d8-2864-3fa4-8c73-2323d8a0953e,-56.047,-26.604,2019-09-20T18:15:00,AQUA_M-T,San Pedro del Paraná,Itapúa,Paraguay,POINT (-26.604 -56.047)
focos_ams_ontem_hoje_ref.025417da-7d83-3c50-9033-5229b6452c11,-49.65,-20.032,2019-09-20T16:40:00,AQUA_M-T,RIOLÂNDIA,SÃO PAULO,Brasil,POINT (-20.032 -49.65)
focos_ams_ontem_hoje_ref.0255b3ee-d08a-3b2e-80d7-a80725dfb3f5,-48.337,-20.224,2019-09-19T17:35:00,AQUA_M-T,GUAÍRA,SÃO PAULO,Brasil,POINT (-20.224 -48.337)
focos_ams_ontem_hoje_ref.0260510d-661c-332c-b3aa-6972ed022543,-63.724,-9.309,2019-09-19T17:40:00,AQUA_M-T,CANDEIAS DO JAMARI,RONDÔNIA,Brasil,POINT (-9.309 -63.724)
focos_ams_ontem_hoje_ref.026d0cf8-3645-3cf9-8d98-74e4737a78b8,-45.867,-8.446,2019-09-20T16:45:00,AQUA_M-T,TASSO FRAGOSO,MARANHÃO,Brasil,POINT (-8.446 -45.867)
focos_ams_ontem_hoje_ref.0275aba4-2730-3715-97f7-3951d0b57d92,-41.348,-16.635,2019-09-19T16:00:00,AQUA_M-T,PONTO DOS VOLANTES,MINAS GERAIS,Brasil,POINT (-16.635 -41.348)
focos_ams_ontem_hoje_ref.027ce332-a950-3af8-b34c-71a49d2717fc,-56.672,-21.618,2019-09-19T17:35:00,AQUA_M-T,BELA VISTA,MATO GROSSO DO SUL,Brasil,POINT (-21.618 -56.672)
focos_ams_ontem_hoje_ref.027f221d-defc-3f8d-a90e-44ec17ac9e31,-59.251,-17.511,2019-09-19T17:35:00,AQUA_M-T,José Miguel de Velasco,Santa Cruz,Bolivia,POINT (-17.511 -59.251)
focos_ams_ontem_hoje_ref.02941237-f5d2-35e8-a7df-3f20ab41f7ec,-55.02,-6.421,2019-09-19T17:40:00,AQUA_M-T,ALTAMIRA,PARÁ,Brasil,POINT (-6.421 -55.02)
focos_ams_ontem_hoje_ref.0298b2df-2d13-31b4-8d99-74929fd817eb,-65.869,-16.58,2019-09-19T17:40:00,AQUA_M-T,Chapare,Cochabamba,Bolivia,POINT (-16.58 -65.869)
focos_ams_ontem_hoje_ref.029b7b25-75ba-398b-a05c-f844e68dc8c2,-50.773,-17.88,2019-09-19T17:35:00,AQUA_M-T,RIO VERDE,GOIÁS,Brasil,POINT (-17.88 -50.773)
focos_ams_ontem_hoje_ref.02a00647-2db0-30b1-a81b-c7fb2c12440a,-51.537,-17.802,2019-09-19T17:35:00,AQUA_M-T,JATAÍ,GOIÁS,Brasil,POINT (-17.802 -51.537)
focos_ams_ontem_hoje_ref.02a94ae9-5a22-36b4-b0bb-1844988c681a,-41.925,-20.314,2019-09-20T16:40:00,AQUA_M-T,MANHUMIRIM,MINAS GERAIS,Brasil,POINT (-20.314 -41.925)
focos_ams_ontem_hoje_ref.02a9e54e-3d10-3c0e-9ee5-df077e36f754,-48.679,-19.772,2019-09-19T17:35:00,AQUA_M-T,CAMPO FLORIDO,MINAS GERAIS,Brasil,POINT (-19.772 -48.679)
focos_ams_ontem_hoje_ref.02add708-74b5-3da4-b438-59c042c4c755,-65.992,-14.742,2019-09-19T17:40:00,AQUA_M-T,Yacuma,El Beni,Bolivia,POINT (-14.742 -65.992)
focos_ams_ontem_hoje_ref.02d63ea8-cd52-3750-a448-2c634bff69a3,-63.94,-14.971,2019-09-19T17:40:00,AQUA_M-T,Marbán,El Beni,Bolivia,POINT (-14.971 -63.94)
focos_ams_ontem_hoje_ref.02e2941f-52c7-36f6-a770-6c84537eea27,-57.278,-19.307,2019-09-19T17:35:00,AQUA_M-T,CORUMBÁ,MATO GROSSO DO SUL,Brasil,POINT (-19.307 -57.278)
focos_ams_ontem_hoje_ref.02e74be7-0e34-3233-9901-7b3a2aa01ad3,-60.607,-15.373,2019-09-19T17:40:00,AQUA_M-T,José Miguel de Velasco,Santa Cruz,Bolivia,POINT (-15.373 -60.607)
focos_ams_ontem_hoje_ref.02ec1f92-3ca4-3e33-95db-4e86894253fd,-58.512,-28.293,2019-09-20T18:15:00,AQUA_M-T,Saladas,Corrientes,Argentina,POINT (-28.293 -58.512)
focos_ams_ontem_hoje_ref.02ef5912-1f2c-38c1-8803-ba87b7770c69,-41.579,-3.163,2019-09-19T16:00:00,AQUA_M-T,BOM PRINCÍPIO DO PIAUÍ,PIAUÍ,Brasil,POINT (-3.163 -41.579)
focos_ams_ontem_hoje_ref.02f3210f-e268-3529-b487-7120b32f5892,-54.801,-12.992,2019-09-19T17:40:00,AQUA_M-T,NOVA UBIRATÃ,MATO GROSSO,Brasil,POINT (-12.992 -54.801)
focos_ams_ontem_hoje_ref.02f347d8-ffc9-3931-851d-1e258737ba06,-46.868,-6.056,2019-09-19T16:00:00,AQUA_M-T,LAJEADO NOVO,MARANHÃO,Brasil,POINT (-6.056 -46.868)
focos_ams_ontem_hoje_ref.02fadd12-d887-3fc2-aa80-05c4b1af659d,-64.459,-14.406,2019-09-19T17:40:00,AQUA_M-T,Cercado,El Beni,Bolivia,POINT (-14.406 -64.459)
focos_ams_ontem_hoje_ref.02fdc317-3696-392a-bab6-b35e1d0215e5,-50.846,-18.979,2019-09-19T17:35:00,AQUA_M-T,CAÇU,GOIÁS,Brasil,POINT (-18.979 -50.846)
focos_ams_ontem_hoje_ref.03038878-7735-3d2d-8f6e-96ea640bf42e,-55.443,-4.365,2019-09-20T16:45:00,AQUA_M-T,RURÓPOLIS,PARÁ,Brasil,POINT (-4.365 -55.443)
focos_ams_ontem_hoje_ref.030eb2e8-9c06-3ad8-9144-a52f49d434b4,-65.33,-9.292,2019-09-19T17:40:00,AQUA_M-T,LÁBREA,AMAZONAS,Brasil,POINT (-9.292 -65.33)
focos_ams_ontem_hoje_ref.031997cc-8eda-32e5-9258-d04e1bcb05de,-67.517,-9.062,2019-09-20T18:25:00,AQUA_M-T,BOCA DO ACRE,AMAZONAS,Brasil,POINT (-9.062 -67.517)
focos_ams_ontem_hoje_ref.03236144-6327-3b34-9ecc-83b0438f47f6,-58.897,-19.592,2019-09-19T17:35:00,AQUA_M-T,Fuerte Olimpo,Alto Paraguay,Paraguay,POINT (-19.592 -58.897)
focos_ams_ontem_hoje_ref.03291a74-0f22-36b9-9595-96b74244ea23,-57.695,-17.049,2019-09-19T17:35:00,AQUA_M-T,CÁCERES,MATO GROSSO,Brasil,POINT (-17.049 -57.695)
focos_ams_ontem_hoje_ref.0329d7ef-1f82-3ab9-9a79-076bb5106ed1,-53.288,-6.106,2019-09-20T16:45:00,AQUA_M-T,SÃO FÉLIX DO XINGU,PARÁ,Brasil,POINT (-6.106 -53.288)
focos_ams_ontem_hoje_ref.0331475e-d111-3438-a252-ae4a0ebac52c,-64.184,-34.447,2019-09-20T18:15:00,AQUA_M-T,General Roca,Córdoba,Argentina,POINT (-34.447 -64.184)
focos_ams_ontem_hoje_ref.03316c2f-08e4-364e-8353-cbbfa8873101,-61.756,-30.254,2019-09-20T18:15:00,AQUA_M-T,San Cristóbal,Santa Fe,Argentina,POINT (-30.254 -61.756)
focos_ams_ontem_hoje_ref.033cb5bc-08b6-3063-aa8d-685228bee561,-55.468,-4.384,2019-09-20T16:45:00,AQUA_M-T,RURÓPOLIS,PARÁ,Brasil,POINT (-4.384 -55.468)
focos_ams_ontem_hoje_ref.033d9be5-cd48-31f7-9f4c-bd4c9fe54db1,-51.512,-17.733,2019-09-19T17:35:00,AQUA_M-T,RIO VERDE,GOIÁS,Brasil,POINT (-17.733 -51.512)
focos_ams_ontem_hoje_ref.033f3d4a-3d82-3558-8795-0d52de59a7d6,-67.947,-9.753,2019-09-19T17:40:00,AQUA_M-T,BUJARI,ACRE,Brasil,POINT (-9.753 -67.947)
focos_ams_ontem_hoje_ref.0349b0bb-c0b7-336e-b393-688073298d15,-43.89,-5.897,2019-09-20T16:45:00,AQUA_M-T,BURITI BRAVO,MARANHÃO,Brasil,POINT (-5.897 -43.89)
focos_ams_ontem_hoje_ref.035a9490-01d3-37d7-8ccf-f670af966511,-68.451,-9.785,2019-09-19T17:40:00,AQUA_M-T,RIO BRANCO,ACRE,Brasil,POINT (-9.785 -68.451)
focos_ams_ontem_hoje_ref.035b1047-194e-3ac6-af37-e856bdcde216,-44.224,-6.109,2019-09-20T16:45:00,AQUA_M-T,COLINAS,MARANHÃO,Brasil,POINT (-6.109 -44.224)
focos_ams_ontem_hoje_ref.036e10c1-4ba8-34cc-aec8-b31e08bd113a,-50.86,-10.305,2019-09-20T16:45:00,AQUA_M-T,SANTA TEREZINHA,MATO GROSSO,Brasil,POINT (-10.305 -50.86)
focos_ams_ontem_hoje_ref.036f10b8-c8c5-35c6-8279-ba925afe1878,-61.216,-10.492,2019-09-19T17:40:00,AQUA_M-T,RONDOLÂNDIA,MATO GROSSO,Brasil,POINT (-10.492 -61.216)
focos_ams_ontem_hoje_ref.03738878-bc62-3591-b033-072f3dc5b64d,-46.227,-15.567,2019-09-20T16:40:00,AQUA_M-T,ARINOS,MINAS GERAIS,Brasil,POINT (-15.567 -46.227)
focos_ams_ontem_hoje_ref.0381b54d-b7b7-3492-a4f5-63e3749899ab,-49.384,-18.358,2019-09-19T17:35:00,AQUA_M-T,ITUMBIARA,GOIÁS,Brasil,POINT (-18.358 -49.384)
focos_ams_ontem_hoje_ref.0389a6d2-9fea-3e31-bc60-18220c7eb7f9,-60.603,-15.367,2019-09-19T17:40:00,AQUA_M-T,José Miguel de Velasco,Santa Cruz,Bolivia,POINT (-15.367 -60.603)
focos_ams_ontem_hoje_ref.038c74f3-21f8-30c2-a364-8495d1a7d410,-42.793,-6.507,2019-09-20T16:45:00,AQUA_M-T,AMARANTE,PIAUÍ,Brasil,POINT (-6.507 -42.793)
focos_ams_ontem_hoje_ref.03987448-e2b8-348e-b203-f80812175cef,-72.063,-7.953,2019-09-20T18:25:00,AQUA_M-T,TARAUACÁ,ACRE,Brasil,POINT (-7.953 -72.063)
focos_ams_ontem_hoje_ref.0399bed4-48a1-3122-8170-0db43e7d3326,-46.274,-5.33,2019-09-20T16:45:00,AQUA_M-T,ARAME,MARANHÃO,Brasil,POINT (-5.33 -46.274)
focos_ams_ontem_hoje_ref.039f488b-5902-3ad8-9359-dd443bd831c3,-52.345,-5.769,2019-09-20T16:45:00,AQUA_M-T,SÃO FÉLIX DO XINGU,PARÁ,Brasil,POINT (-5.769 -52.345)
focos_ams_ontem_hoje_ref.03a611af-1dfd-34d0-beb2-31fc6d3f0746,-49.75,-18.046,2019-09-19T17:35:00,AQUA_M-T,GOIATUBA,GOIÁS,Brasil,POINT (-18.046 -49.75)
focos_ams_ontem_hoje_ref.03a70f2f-8c1a-33f3-beb3-30f47997a654,-58.86,-17.135,2019-09-19T17:35:00,AQUA_M-T,José Miguel de Velasco,Santa Cruz,Bolivia,POINT (-17.135 -58.86)
focos_ams_ontem_hoje_ref.03b11c40-f57e-3796-aad0-aa6376e8cf1a,-58.536,-16.896,2019-09-19T17:35:00,AQUA_M-T,José Miguel de Velasco,Santa Cruz,Bolivia,POINT (-16.896 -58.536)
focos_ams_ontem_hoje_ref.03b2154e-7bb0-3178-8ff0-21f5e29ae139,-51.216,-10.557,2019-09-20T16:45:00,AQUA_M-T,SANTA TEREZINHA,MATO GROSSO,Brasil,POINT (-10.557 -51.216)
focos_ams_ontem_hoje_ref.03b2aea9-e23a-3e0a-a355-872b90fd20e1,-46.122,-8.723,2019-09-20T16:45:00,AQUA_M-T,TASSO FRAGOSO,MARANHÃO,Brasil,POINT (-8.723 -46.122)
focos_ams_ontem_hoje_ref.03bb75c4-70f3-33cc-ba15-7f78fc240e4e,-61.5,-38.942,2019-09-20T18:15:00,AQUA_M-T,Coronel de Marina Leonardo Rosales,Buenos Aires,Argentina,POINT (-38.942 -61.5)
focos_ams_ontem_hoje_ref.03bbbf21-04ed-35d6-98ce-5c35ab9a49be,-58.578,-16.791,2019-09-19T17:35:00,AQUA_M-T,José Miguel de Velasco,Santa Cruz,Bolivia,POINT (-16.791 -58.578)
focos_ams_ontem_hoje_ref.03beef74-1620-3050-92be-af16e3f8079d,-45.531,-7.33,2019-09-20T16:45:00,AQUA_M-T,SAMBAÍBA,MARANHÃO,Brasil,POINT (-7.33 -45.531)
focos_ams_ontem_hoje_ref.03c2411f-03a4-39d1-9e14-fcc76e0435dd,-63.741,-14.319,2019-09-19T17:40:00,AQUA_M-T,Cercado,El Beni,Bolivia,POINT (-14.319 -63.741)
focos_ams_ontem_hoje_ref.03c69c7c-f0cc-32c8-92f3-2a4c93be026a,-44.783,-8.022,2019-09-20T16:45:00,AQUA_M-T,URUÇUÍ,PIAUÍ,Brasil,POINT (-8.022 -44.783)
focos_ams_ontem_hoje_ref.03c6af18-5f6c-3c7d-a612-7ec4d6805d69,-69.672,-12.78,2019-09-20T18:20:00,AQUA_M-T,Tambopata,Madre de Dios,Peru,POINT (-12.78 -69.672)
focos_ams_ontem_hoje_ref.03c7950c-0661-3e71-a23a-20b5204dee22,-41.592,-7.009,2019-09-20T16:45:00,AQUA_M-T,PICOS,PIAUÍ,Brasil,POINT (-7.009 -41.592)
focos_ams_ontem_hoje_ref.03d631fd-361b-3f0e-985d-995ea93c8822,-50.837,-18.983,2019-09-20T16:40:00,AQUA_M-T,CAÇU,GOIÁS,Brasil,POINT (-18.983 -50.837)
focos_ams_ontem_hoje_ref.03dc5a9a-8517-3629-a707-360bad79e68b,-73,-7.707,2019-09-20T18:25:00,AQUA_M-T,RODRIGUES ALVES,ACRE,Brasil,POINT (-7.707 -73)
focos_ams_ontem_hoje_ref.03ddf514-b27e-3afc-a24e-1f1a603f54b4,-58.887,-18.654,2019-09-19T17:35:00,AQUA_M-T,Chiquitos,Santa Cruz,Bolivia,POINT (-18.654 -58.887)
focos_ams_ontem_hoje_ref.03e5240b-7f64-3bed-b516-d0995fac10e2,-59.014,-19.277,2019-09-20T18:20:00,AQUA_M-T,Chiquitos,Santa Cruz,Bolivia,POINT (-19.277 -59.014)
focos_ams_ontem_hoje_ref.03ec0d1d-1281-30d2-92db-c2b7e72efce6,-58.894,-19.694,2019-09-19T17:35:00,AQUA_M-T,Fuerte Olimpo,Alto Paraguay,Paraguay,POINT (-19.694 -58.894)
focos_ams_ontem_hoje_ref.040f358a-938f-3234-9410-8a06b80ffe9c,-50.95,-17.147,2019-09-19T17:35:00,AQUA_M-T,RIO VERDE,GOIÁS,Brasil,POINT (-17.147 -50.95)
focos_ams_ontem_hoje_ref.041b58eb-fa2b-3fe9-85ae-24e3b1d7075c,-44.64,-6.068,2019-09-20T16:45:00,AQUA_M-T,MIRADOR,MARANHÃO,Brasil,POINT (-6.068 -44.64)
focos_ams_ontem_hoje_ref.0428ff95-334e-3a47-9ae2-cf97aa5a90c4,-48.294,-10.974,2019-09-20T16:45:00,AQUA_M-T,PORTO NACIONAL,TOCANTINS,Brasil,POINT (-10.974 -48.294)
focos_ams_ontem_hoje_ref.043634da-49a7-32d8-aa4b-bf462087c864,-65.203,-11.801,2019-09-20T18:20:00,AQUA_M-T,Vaca Díez,El Beni,Bolivia,POINT (-11.801 -65.203)
focos_ams_ontem_hoje_ref.0443c9ed-f989-30fd-8e7d-69d64e6ecf6b,-55.39,-6.361,2019-09-19T17:40:00,AQUA_M-T,ITAITUBA,PARÁ,Brasil,POINT (-6.361 -55.39)
focos_ams_ontem_hoje_ref.0446eb6c-12cd-343b-a1c0-601d933b98b9,-48.921,-14.63,2019-09-20T16:40:00,AQUA_M-T,NIQUELÂNDIA,GOIÁS,Brasil,POINT (-14.63 -48.921)
focos_ams_ontem_hoje_ref.04573f55-3faa-3f1c-a1d1-2dfb2e7091e5,-50.616,-13.162,2019-09-20T16:45:00,AQUA_M-T,COCALINHO,MATO GROSSO,Brasil,POINT (-13.162 -50.616)
focos_ams_ontem_hoje_ref.04664a3a-b02c-33b3-b44b-e1173c817abf,-69.841,-9.096,2019-09-20T18:25:00,AQUA_M-T,SANTA ROSA DO PURUS,ACRE,Brasil,POINT (-9.096 -69.841)
focos_ams_ontem_hoje_ref.047e15e7-17af-3b31-b9ba-6e07a86c90d1,-60.652,-24.985,2019-09-20T18:20:00,AQUA_M-T,Patiño,Formosa,Argentina,POINT (-24.985 -60.652)
focos_ams_ontem_hoje_ref.04801d20-d080-32f8-9a34-d765cc7eb748,-42.998,-6.609,2019-09-20T16:45:00,AQUA_M-T,BARÃO DE GRAJAÚ,MARANHÃO,Brasil,POINT (-6.609 -42.998)
focos_ams_ontem_hoje_ref.04881e6f-4a3e-3f34-ab91-02c1e0a59c45,-52.092,-5.883,2019-09-20T16:45:00,AQUA_M-T,SÃO FÉLIX DO XINGU,PARÁ,Brasil,POINT (-5.883 -52.092)
focos_ams_ontem_hoje_ref.048c46b0-31fb-3095-a272-54357abf1ebe,-55.022,-6.409,2019-09-19T17:40:00,AQUA_M-T,ALTAMIRA,PARÁ,Brasil,POINT (-6.409 -55.022)
focos_ams_ontem_hoje_ref.048f1a90-7d80-36b3-a2a5-196d49bbf68d,-50.583,-17.807,2019-09-19T17:35:00,AQUA_M-T,SANTA HELENA DE GOIÁS,GOIÁS,Brasil,POINT (-17.807 -50.583)
focos_ams_ontem_hoje_ref.0495000d-d8b7-39a7-be07-f7274164ea49,-44.862,-11.575,2019-09-20T16:45:00,AQUA_M-T,RIACHÃO DAS NEVES,BAHIA,Brasil,POINT (-11.575 -44.862)
focos_ams_ontem_hoje_ref.04a6ed6b-2f10-3bab-b92f-e3f1758cd46b,-46.219,-8.753,2019-09-19T16:00:00,AQUA_M-T,TASSO FRAGOSO,MARANHÃO,Brasil,POINT (-8.753 -46.219)
focos_ams_ontem_hoje_ref.04be99b0-aa18-38b5-a891-4414161b2865,-51.947,-5.68,2019-09-20T16:45:00,AQUA_M-T,SÃO FÉLIX DO XINGU,PARÁ,Brasil,POINT (-5.68 -51.947)
focos_ams_ontem_hoje_ref.04befd06-4215-3eac-a851-772f9e84bdbe,-69.616,6.254,2019-09-20T18:25:00,AQUA_M-T,Cravo Norte,Arauca,Colombia,POINT (6.254 -69.616)
focos_ams_ontem_hoje_ref.04c6ad73-1e67-33e8-a7d6-3bd69da5934d,-62.025,-8.986,2019-09-19T17:40:00,AQUA_M-T,MACHADINHO D'OESTE,RONDÔNIA,Brasil,POINT (-8.986 -62.025)
focos_ams_ontem_hoje_ref.04cd8364-cd72-3cbe-a9d3-74213f5992a9,-49.471,-20.269,2019-09-19T17:35:00,AQUA_M-T,PALESTINA,SÃO PAULO,Brasil,POINT (-20.269 -49.471)
focos_ams_ontem_hoje_ref.04cfae44-8ac0-33cd-a2d6-2a022c52d762,-43.033,-18.373,2019-09-20T16:40:00,AQUA_M-T,RIO VERMELHO,MINAS GERAIS,Brasil,POINT (-18.373 -43.033)
focos_ams_ontem_hoje_ref.04d69af8-0a30-3e0b-9da5-1000aa50b0a5,-45.796,-9.153,2019-09-20T16:45:00,AQUA_M-T,SANTA FILOMENA,PIAUÍ,Brasil,POINT (-9.153 -45.796)
focos_ams_ontem_hoje_ref.04df18b8-21e7-3776-b945-6a029b18b24b,-49.488,-20.224,2019-09-19T17:35:00,AQUA_M-T,PAULO DE FARIA,SÃO PAULO,Brasil,POINT (-20.224 -49.488)
focos_ams_ontem_hoje_ref.04e9bb16-ad74-34ba-877d-80205ddcc79b,-57.855,-3.478,2019-09-20T16:45:00,AQUA_M-T,MAUÉS,AMAZONAS,Brasil,POINT (-3.478 -57.855)
focos_ams_ontem_hoje_ref.04ec2aeb-ece0-34bd-91f8-f657c9e5ff5f,-49.449,-20.276,2019-09-19T17:35:00,AQUA_M-T,PALESTINA,SÃO PAULO,Brasil,POINT (-20.276 -49.449)
focos_ams_ontem_hoje_ref.050f89b8-2839-34c4-aef1-2d23f931687d,-46.246,-5.244,2019-09-20T16:45:00,AQUA_M-T,ARAME,MARANHÃO,Brasil,POINT (-5.244 -46.246)
focos_ams_ontem_hoje_ref.0511c632-c880-3a7a-aee1-bb0dffcffb78,-68.932,-10.636,2019-09-20T18:20:00,AQUA_M-T,BRASILÉIA,ACRE,Brasil,POINT (-10.636 -68.932)
focos_ams_ontem_hoje_ref.051f03e8-9c8c-3219-a873-b2ba8596ed19,-67.055,-14.365,2019-09-19T17:40:00,AQUA_M-T,José Ballivián,El Beni,Bolivia,POINT (-14.365 -67.055)
focos_ams_ontem_hoje_ref.051fa1f7-ed08-35cc-8802-414d3f0dec85,-42.384,-18.33,2019-09-20T16:40:00,AQUA_M-T,SANTA MARIA DO SUAÇUÍ,MINAS GERAIS,Brasil,POINT (-18.33 -42.384)
focos_ams_ontem_hoje_ref.052a3018-3af9-3949-9c7f-dcbd4d885342,-59.862,-29.189,2019-09-20T18:15:00,AQUA_M-T,General Obligado,Santa Fe,Argentina,POINT (-29.189 -59.862)
focos_ams_ontem_hoje_ref.053bae57-0547-3bf3-b81d-7a85afcb69d7,-56.965,-17.77,2019-09-19T17:35:00,AQUA_M-T,CORUMBÁ,MATO GROSSO DO SUL,Brasil,POINT (-17.77 -56.965)
focos_ams_ontem_hoje_ref.05471d2e-79bc-30f6-b879-c0e968dca547,-57.292,-12.184,2019-09-19T17:40:00,AQUA_M-T,NOVA MARINGÁ,MATO GROSSO,Brasil,POINT (-12.184 -57.292)
focos_ams_ontem_hoje_ref.05625072-312e-3509-867c-99b87826168d,-47.235,-8.467,2019-09-20T16:45:00,AQUA_M-T,GOIATINS,TOCANTINS,Brasil,POINT (-8.467 -47.235)
focos_ams_ontem_hoje_ref.056757ff-2302-3053-a075-26061abd35b9,-67.043,-14.287,2019-09-20T18:20:00,AQUA_M-T,José Ballivián,El Beni,Bolivia,POINT (-14.287 -67.043)
focos_ams_ontem_hoje_ref.056b9597-f1fc-366e-92ea-44dcbe19f7f2,-63.825,-17.069,2019-09-19T17:35:00,AQUA_M-T,Sara,Santa Cruz,Bolivia,POINT (-17.069 -63.825)
focos_ams_ontem_hoje_ref.05705099-0b46-3d1e-abd7-aff27467fcfc,-59.09,-19.158,2019-09-20T18:20:00,AQUA_M-T,Cordillera,Santa Cruz,Bolivia,POINT (-19.158 -59.09)
focos_ams_ontem_hoje_ref.05b0c509-4321-3a91-98ba-e735194ddd3d,-57.054,-15.777,2019-09-19T17:35:00,AQUA_M-T,CÁCERES,MATO GROSSO,Brasil,POINT (-15.777 -57.054)
focos_ams_ontem_hoje_ref.05b643b8-b0cd-3171-b934-d5cfd53494ef,-57.648,-22.385,2019-09-19T17:35:00,AQUA_M-T,Concepción,Concepción,Paraguay,POINT (-22.385 -57.648)
focos_ams_ontem_hoje_ref.05c9508b-97cf-302a-b678-69d80bb13a18,-63.02,-25.78,2019-09-20T18:20:00,AQUA_M-T,Copo,Santiago del Estero,Argentina,POINT (-25.78 -63.02)
focos_ams_ontem_hoje_ref.05cab3dd-b07a-35d8-8019-8238dbf6b842,-49.216,-13.798,2019-09-19T17:40:00,AQUA_M-T,MUTUNÓPOLIS,GOIÁS,Brasil,POINT (-13.798 -49.216)
focos_ams_ontem_hoje_ref.05dd03bc-ed54-3f1c-9004-a7ad917869a4,-62.308,-29.557,2019-09-20T18:15:00,AQUA_M-T,Aguirre,Santiago del Estero,Argentina,POINT (-29.557 -62.308)
focos_ams_ontem_hoje_ref.05ddb7c4-bf91-3250-9a6d-2cd920db9758,-49.878,-18.3,2019-09-19T17:35:00,AQUA_M-T,ITUMBIARA,GOIÁS,Brasil,POINT (-18.3 -49.878)
focos_ams_ontem_hoje_ref.0601c131-8a17-322f-bb33-289e6fba825a,-62.477,-9.029,2019-09-19T17:40:00,AQUA_M-T,CUJUBIM,RONDÔNIA,Brasil,POINT (-9.029 -62.477)
focos_ams_ontem_hoje_ref.06054301-32c5-36af-849e-ea3da6c43143,-40.063,-19.334,2019-09-19T16:00:00,AQUA_M-T,LINHARES,ESPÍRITO SANTO,Brasil,POINT (-19.334 -40.063)
focos_ams_ontem_hoje_ref.0608416c-9624-396e-8069-496612a61271,-55.101,-11.349,2019-09-19T17:40:00,AQUA_M-T,CLÁUDIA,MATO GROSSO,Brasil,POINT (-11.349 -55.101)
focos_ams_ontem_hoje_ref.060bc0ff-e997-3ae2-acee-00bd50f6aa8a,-60.89,-9.351,2019-09-19T17:40:00,AQUA_M-T,COLNIZA,MATO GROSSO,Brasil,POINT (-9.351 -60.89)
focos_ams_ontem_hoje_ref.062219f4-5cbf-3f60-b503-9dff3c9a3acc,-54.842,-13.01,2019-09-19T17:40:00,AQUA_M-T,NOVA UBIRATÃ,MATO GROSSO,Brasil,POINT (-13.01 -54.842)
focos_ams_ontem_hoje_ref.062346c1-e589-33c6-a872-87fbe1e212b2,-64.05,-9.67,2019-09-19T17:40:00,AQUA_M-T,PORTO VELHO,RONDÔNIA,Brasil,POINT (-9.67 -64.05)
focos_ams_ontem_hoje_ref.0625b0b3-986c-3730-a867-0148dbe663c4,-59.335,-26.141,2019-09-20T18:20:00,AQUA_M-T,Pirané,Formosa,Argentina,POINT (-26.141 -59.335)
focos_ams_ontem_hoje_ref.062df4e3-d7cf-3fb5-8cbb-864bbc95a0cb,-59.466,-9.838,2019-09-19T17:40:00,AQUA_M-T,ARIPUANÃ,MATO GROSSO,Brasil,POINT (-9.838 -59.466)
focos_ams_ontem_hoje_ref.06319459-9b78-3e92-b96b-ffb28f39439b,-59.675,-10.273,2019-09-19T17:40:00,AQUA_M-T,ARIPUANÃ,MATO GROSSO,Brasil,POINT (-10.273 -59.675)
focos_ams_ontem_hoje_ref.06425c02-00e1-3536-9336-be8642c8a315,-62.222,-16.087,2019-09-20T18:20:00,AQUA_M-T,Ñuflo de Chávez,Santa Cruz,Bolivia,POINT (-16.087 -62.222)
focos_ams_ontem_hoje_ref.064271d7-1ad9-3b3a-9bfb-8d46f856e256,-58.167,-10.145,2019-09-19T17:40:00,AQUA_M-T,NOVA BANDEIRANTES,MATO GROSSO,Brasil,POINT (-10.145 -58.167)
focos_ams_ontem_hoje_ref.06484e5a-dccc-311b-a508-756a96d549af,-68.509,-14.487,2019-09-20T18:20:00,AQUA_M-T,Franz Tamayo,La Paz,Bolivia,POINT (-14.487 -68.509)
focos_ams_ontem_hoje_ref.064edf53-4c7b-30a5-b1bc-4c471e90b837,-54.905,-17.983,2019-09-19T17:35:00,AQUA_M-T,COXIM,MATO GROSSO DO SUL,Brasil,POINT (-17.983 -54.905)
focos_ams_ontem_hoje_ref.065542f9-0263-3f0c-afe6-01d0f8563991,-43.883,-5.865,2019-09-20T16:45:00,AQUA_M-T,BURITI BRAVO,MARANHÃO,Brasil,POINT (-5.865 -43.883)
focos_ams_ontem_hoje_ref.067682b9-4a77-3dc8-a328-d4413e92c95d,-40.391,-14.176,2019-09-20T16:40:00,AQUA_M-T,MANOEL VITORINO,BAHIA,Brasil,POINT (-14.176 -40.391)
focos_ams_ontem_hoje_ref.0679d055-bca0-3c92-a2ef-92db34f0512d,-59.941,-21.089,2019-09-19T17:35:00,AQUA_M-T,General Eugenio A. Garay,Boquerón,Paraguay,POINT (-21.089 -59.941)
focos_ams_ontem_hoje_ref.068c533b-afdc-3ab6-8bef-21d322421da2,-54.656,-3.773,2019-09-20T16:45:00,AQUA_M-T,PLACAS,PARÁ,Brasil,POINT (-3.773 -54.656)
focos_ams_ontem_hoje_ref.06997f09-65ef-3b39-81ec-764fbdc535e9,-44.394,-6.052,2019-09-20T16:45:00,AQUA_M-T,MIRADOR,MARANHÃO,Brasil,POINT (-6.052 -44.394)
focos_ams_ontem_hoje_ref.06a2b41b-527a-37e1-bad6-d279dd3388b1,-46.447,-9.9,2019-09-20T16:45:00,AQUA_M-T,ALTO PARNAÍBA,MARANHÃO,Brasil,POINT (-9.9 -46.447)
focos_ams_ontem_hoje_ref.06aed28e-292b-3f91-9cc6-c591db43ca84,-55.549,-31.594,2019-09-19T17:35:00,AQUA_M-T,n.a25,Rivera,Uruguay,POINT (-31.594 -55.549)
focos_ams_ontem_hoje_ref.06b650e2-8275-334d-9f7b-4448bbda7130,-57.673,-20.853,2019-09-19T17:35:00,AQUA_M-T,PORTO MURTINHO,MATO GROSSO DO SUL,Brasil,POINT (-20.853 -57.673)
focos_ams_ontem_hoje_ref.06b681fc-a675-3afd-ba00-533c46a98aec,-59.032,-16.801,2019-09-19T17:35:00,AQUA_M-T,José Miguel de Velasco,Santa Cruz,Bolivia,POINT (-16.801 -59.032)
focos_ams_ontem_hoje_ref.06b91636-dca0-30a1-85cf-72ef6d404197,-70.912,-29.115,2019-09-20T18:15:00,AQUA_M-T,Elqui,Coquimbo,Chile,POINT (-29.115 -70.912)
focos_ams_ontem_hoje_ref.06ba389d-7756-3df3-b111-07ecae864fa1,-45.627,-5.429,2019-09-20T16:45:00,AQUA_M-T,JENIPAPO DOS VIEIRAS,MARANHÃO,Brasil,POINT (-5.429 -45.627)
focos_ams_ontem_hoje_ref.06bec119-03b9-31bc-8baf-00591c99ac63,-43.589,-13.634,2019-09-19T16:00:00,AQUA_M-T,SERRA DO RAMALHO,BAHIA,Brasil,POINT (-13.634 -43.589)
focos_ams_ontem_hoje_ref.06c3749d-3f72-3a5e-a2bc-09534fde0d2f,-43.738,-5.929,2019-09-19T16:00:00,AQUA_M-T,BURITI BRAVO,MARANHÃO,Brasil,POINT (-5.929 -43.738)
focos_ams_ontem_hoje_ref.06c6f9b1-1a24-3454-98bc-36dea7c8537c,-54.112,-3.543,2019-09-20T16:45:00,AQUA_M-T,URUARÁ,PARÁ,Brasil,POINT (-3.543 -54.112)
focos_ams_ontem_hoje_ref.06c9d1b1-25da-312b-b965-8865b1e71616,-55.04,-6.411,2019-09-19T17:40:00,AQUA_M-T,ALTAMIRA,PARÁ,Brasil,POINT (-6.411 -55.04)
focos_ams_ontem_hoje_ref.06ca4017-8994-3fbe-b21c-1ac39b76cd19,-62.95,-33.396,2019-09-20T18:15:00,AQUA_M-T,Unión,Córdoba,Argentina,POINT (-33.396 -62.95)
focos_ams_ontem_hoje_ref.06cab6f0-ed26-3c0d-97e2-96b2ed33f3db,-55.98,1.749,2019-09-20T16:45:00,AQUA_M-T,ORIXIMINÁ,PARÁ,Brasil,POINT (1.749 -55.98)
focos_ams_ontem_hoje_ref.06f728ba-172f-3500-9c73-82ab259196c5,-64.743,-17.271,2019-09-19T17:35:00,AQUA_M-T,Carrasco,Cochabamba,Bolivia,POINT (-17.271 -64.743)
focos_ams_ontem_hoje_ref.072dba34-e111-3e6b-b4f0-5410c093b439,-65.279,-14.359,2019-09-19T17:40:00,AQUA_M-T,Moxos,El Beni,Bolivia,POINT (-14.359 -65.279)
focos_ams_ontem_hoje_ref.07393dd1-3dda-39b1-a47c-d72a70150837,-50.03,-16.045,2019-09-20T16:40:00,AQUA_M-T,ITABERAÍ,GOIÁS,Brasil,POINT (-16.045 -50.03)
focos_ams_ontem_hoje_ref.0747ade7-1f16-3269-a0e2-3ced3cf6ecfa,-62.909,-30.195,2019-09-20T18:15:00,AQUA_M-T,Rió Seco,Córdoba,Argentina,POINT (-30.195 -62.909)
focos_ams_ontem_hoje_ref.074a2510-7922-3db2-a2e4-5950f5e29edf,-68.302,-31.92,2019-09-19T19:10:00,AQUA_M-T,Veinticinco de Mayo,San Juan,Argentina,POINT (-31.92 -68.302)
focos_ams_ontem_hoje_ref.07505a34-42ac-32a1-9113-5d1f5aa3dd30,-65.111,-11.627,2019-09-19T17:40:00,AQUA_M-T,GUAJARÁ-MIRIM,RONDÔNIA,Brasil,POINT (-11.627 -65.111)
focos_ams_ontem_hoje_ref.07609e39-28bc-3f3c-b623-e2c236136cba,-42.81,-7.201,2019-09-20T16:45:00,AQUA_M-T,NAZARÉ DO PIAUÍ,PIAUÍ,Brasil,POINT (-7.201 -42.81)
focos_ams_ontem_hoje_ref.077106ac-ebe0-311b-9631-8f0b7c7d7965,-66.972,-13.845,2019-09-20T18:20:00,AQUA_M-T,José Ballivián,El Beni,Bolivia,POINT (-13.845 -66.972)
focos_ams_ontem_hoje_ref.077362fb-fa94-3321-8926-e82d6df97f89,-45.618,-9.726,2019-09-20T16:45:00,AQUA_M-T,GILBUÉS,PIAUÍ,Brasil,POINT (-9.726 -45.618)
focos_ams_ontem_hoje_ref.0774b63e-72c7-3ef9-a3a2-7d24fb9ba0dd,-70.447,-12.767,2019-09-19T17:40:00,AQUA_M-T,Manu,Madre de Dios,Peru,POINT (-12.767 -70.447)
focos_ams_ontem_hoje_ref.0776037f-6661-301b-adc7-e0db2b0977ae,-45.588,-5.516,2019-09-20T16:45:00,AQUA_M-T,JENIPAPO DOS VIEIRAS,MARANHÃO,Brasil,POINT (-5.516 -45.588)
focos_ams_ontem_hoje_ref.0776543b-5729-37e6-85e4-f094fa2fdc8c,-60.681,-15.228,2019-09-19T17:40:00,AQUA_M-T,José Miguel de Velasco,Santa Cruz,Bolivia,POINT (-15.228 -60.681)
focos_ams_ontem_hoje_ref.07778fb8-c60d-3d1c-a735-6da87c81450c,-57.81,-19.338,2019-09-19T17:35:00,AQUA_M-T,CORUMBÁ,MATO GROSSO DO SUL,Brasil,POINT (-19.338 -57.81)
focos_ams_ontem_hoje_ref.077806c8-d4f8-3c5e-a668-41d173da24d4,-51.554,-11.192,2019-09-19T17:40:00,AQUA_M-T,CANABRAVA DO NORTE,MATO GROSSO,Brasil,POINT (-11.192 -51.554)
focos_ams_ontem_hoje_ref.077fa5ec-ae28-3889-b3dc-0d726d5e4cd8,-49.955,-18.329,2019-09-19T17:35:00,AQUA_M-T,BOM JESUS DE GOIÁS,GOIÁS,Brasil,POINT (-18.329 -49.955)
focos_ams_ontem_hoje_ref.0783bb11-7636-3b61-9743-91a0895687d1,-63.319,-13.806,2019-09-19T17:40:00,AQUA_M-T,Vaca Díez,El Beni,Bolivia,POINT (-13.806 -63.319)
focos_ams_ontem_hoje_ref.07949724-7d84-3b55-b363-dff66001f0df,-50.052,-18.287,2019-09-19T17:35:00,AQUA_M-T,BOM JESUS DE GOIÁS,GOIÁS,Brasil,POINT (-18.287 -50.052)
focos_ams_ontem_hoje_ref.07966655-f507-3014-b369-5160ef16536a,-56.751,-20.369,2019-09-19T17:35:00,AQUA_M-T,MIRANDA,MATO GROSSO DO SUL,Brasil,POINT (-20.369 -56.751)
focos_ams_ontem_hoje_ref.079d94bd-5edd-3cdb-886a-186f3d3ce200,-64.703,-9.734,2019-09-19T17:40:00,AQUA_M-T,PORTO VELHO,RONDÔNIA,Brasil,POINT (-9.734 -64.703)
focos_ams_ontem_hoje_ref.07ae1172-b9c8-3830-8475-64234f8df595,-44.743,-20.513,2019-09-20T16:40:00,AQUA_M-T,CLÁUDIO,MINAS GERAIS,Brasil,POINT (-20.513 -44.743)
focos_ams_ontem_hoje_ref.07bd6b65-a7cc-387b-ba23-0d99136d5fed,-57.705,-23.155,2019-09-19T17:35:00,AQUA_M-T,Pozo Colorado,Presidente Hayes,Paraguay,POINT (-23.155 -57.705)
focos_ams_ontem_hoje_ref.07c3b11f-e5d2-37cb-a2d4-a171db131d40,-63.36,-15.461,2019-09-19T17:40:00,AQUA_M-T,Marbán,El Beni,Bolivia,POINT (-15.461 -63.36)
focos_ams_ontem_hoje_ref.07c3fe5f-e373-388d-b7c3-4ac112e0315d,-69.354,-11.344,2019-09-20T18:20:00,AQUA_M-T,Tahuamanu,Madre de Dios,Peru,POINT (-11.344 -69.354)
focos_ams_ontem_hoje_ref.07c71c7d-5d48-377a-b48c-4d50368b9c94,-57.881,-22.445,2019-09-19T17:35:00,AQUA_M-T,Puerto Pinasco,Presidente Hayes,Paraguay,POINT (-22.445 -57.881)
focos_ams_ontem_hoje_ref.07cb98b1-0403-35a3-98e3-da486591b27f,-61.241,-15.545,2019-09-19T17:40:00,AQUA_M-T,José Miguel de Velasco,Santa Cruz,Bolivia,POINT (-15.545 -61.241)
focos_ams_ontem_hoje_ref.07ddeb05-299d-3052-8554-dc2d3baa1ee2,-64.977,-12.027,2019-09-20T18:20:00,AQUA_M-T,Mamoré,El Beni,Bolivia,POINT (-12.027 -64.977)
focos_ams_ontem_hoje_ref.07e4df80-d145-39c2-a433-2991c5cfdcdb,-59.157,-9.342,2019-09-19T17:40:00,AQUA_M-T,COLNIZA,MATO GROSSO,Brasil,POINT (-9.342 -59.157)
focos_ams_ontem_hoje_ref.07f0f3a3-f6b6-361f-a14f-aa642c644670,-66.33,-11.273,2019-09-19T17:40:00,AQUA_M-T,Madre de Dios,Pando,Bolivia,POINT (-11.273 -66.33)
focos_ams_ontem_hoje_ref.07f44cc5-9ead-3eaf-9bbe-2e036b1e751c,-70.18,-8.558,2019-09-19T17:40:00,AQUA_M-T,FEIJÓ,ACRE,Brasil,POINT (-8.558 -70.18)
focos_ams_ontem_hoje_ref.07f60738-f955-33ca-a20d-5ad89cf32f2e,-45.856,-8.454,2019-09-20T16:45:00,AQUA_M-T,TASSO FRAGOSO,MARANHÃO,Brasil,POINT (-8.454 -45.856)
focos_ams_ontem_hoje_ref.07f62969-aef9-3fd2-bb44-ecbc52c5f889,-51.522,-17.723,2019-09-19T17:35:00,AQUA_M-T,RIO VERDE,GOIÁS,Brasil,POINT (-17.723 -51.522)
focos_ams_ontem_hoje_ref.07fa2dfa-a15f-3d2c-8207-2362c754d54c,-44.854,-14.205,2019-09-20T16:40:00,AQUA_M-T,COCOS,BAHIA,Brasil,POINT (-14.205 -44.854)
focos_ams_ontem_hoje_ref.07fb9a13-d9cc-383b-8ffd-5875287cd3f0,-46.415,-5.366,2019-09-19T16:00:00,AQUA_M-T,AMARANTE DO MARANHÃO,MARANHÃO,Brasil,POINT (-5.366 -46.415)
focos_ams_ontem_hoje_ref.07ffacac-3959-34dc-8c2e-8db4f8fe3d88,-44.063,-8.588,2019-09-20T16:45:00,AQUA_M-T,ALVORADA DO GURGUÉIA,PIAUÍ,Brasil,POINT (-8.588 -44.063)
focos_ams_ontem_hoje_ref.0810f06a-b034-38e9-bda7-cb6e2ca39f04,-50.68,-17.77,2019-09-19T17:35:00,AQUA_M-T,SANTA HELENA DE GOIÁS,GOIÁS,Brasil,POINT (-17.77 -50.68)
focos_ams_ontem_hoje_ref.081145fe-2afb-394d-abf6-4346ab39bb67,-58.179,-17.185,2019-09-19T17:35:00,AQUA_M-T,CÁCERES,MATO GROSSO,Brasil,POINT (-17.185 -58.179)
focos_ams_ontem_hoje_ref.081992d2-34b9-3dcd-82f4-f8e6c80be320,-50.589,-22.02,2019-09-19T17:35:00,AQUA_M-T,TUPÃ,SÃO PAULO,Brasil,POINT (-22.02 -50.589)
focos_ams_ontem_hoje_ref.081e9129-a2d3-3dd1-b62d-50153cd79803,-57.682,-20.607,2019-09-19T17:35:00,AQUA_M-T,CORUMBÁ,MATO GROSSO DO SUL,Brasil,POINT (-20.607 -57.682)
focos_ams_ontem_hoje_ref.08311091-d77b-3432-942c-8b5bce259dda,-56.985,-20.404,2019-09-19T17:35:00,AQUA_M-T,PORTO MURTINHO,MATO GROSSO DO SUL,Brasil,POINT (-20.404 -56.985)
focos_ams_ontem_hoje_ref.0842aedf-a4d3-3184-9e6b-4cb06761ab06,-54.348,-13.447,2019-09-19T17:40:00,AQUA_M-T,PARANATINGA,MATO GROSSO,Brasil,POINT (-13.447 -54.348)
focos_ams_ontem_hoje_ref.0845ac7b-3339-34b8-9874-aeab8230d2fe,-50.512,-17.804,2019-09-19T17:35:00,AQUA_M-T,SANTA HELENA DE GOIÁS,GOIÁS,Brasil,POINT (-17.804 -50.512)
focos_ams_ontem_hoje_ref.0855558c-b781-372f-9ed0-eee0e7eab4de,-57.53,-16.251,2019-09-19T17:35:00,AQUA_M-T,CÁCERES,MATO GROSSO,Brasil,POINT (-16.251 -57.53)
focos_ams_ontem_hoje_ref.08558bf5-da7f-330e-b69a-0f3013002cb3,-61.235,-7.709,2019-09-19T17:40:00,AQUA_M-T,NOVO ARIPUANÃ,AMAZONAS,Brasil,POINT (-7.709 -61.235)
focos_ams_ontem_hoje_ref.08566e0b-ce16-306f-a915-4ddb07c78143,-52.361,-5.771,2019-09-20T16:45:00,AQUA_M-T,SÃO FÉLIX DO XINGU,PARÁ,Brasil,POINT (-5.771 -52.361)
focos_ams_ontem_hoje_ref.087819ee-be75-3199-a308-7d529f755d92,-69.76,-16.187,2019-09-20T18:20:00,AQUA_M-T,Puno,Puno,Peru,POINT (-16.187 -69.76)
focos_ams_ontem_hoje_ref.087de41a-9f55-35aa-89e8-e1464cf941eb,-44.776,-6.878,2019-09-20T16:45:00,AQUA_M-T,SÃO FÉLIX DE BALSAS,MARANHÃO,Brasil,POINT (-6.878 -44.776)
focos_ams_ontem_hoje_ref.087dfb3f-ae57-3619-9d40-4552a3a4c655,-50.245,-10.98,2019-09-20T16:45:00,AQUA_M-T,LAGOA DA CONFUSÃO,TOCANTINS,Brasil,POINT (-10.98 -50.245)
focos_ams_ontem_hoje_ref.08815242-eb57-323c-ae2a-3f919f0fe02e,-64.096,-27.284,2019-09-19T17:35:00,AQUA_M-T,Banda,Santiago del Estero,Argentina,POINT (-27.284 -64.096)
focos_ams_ontem_hoje_ref.08820ae2-ce43-380e-8a22-4537eb2647a0,-63.736,-14.319,2019-09-19T17:40:00,AQUA_M-T,Cercado,El Beni,Bolivia,POINT (-14.319 -63.736)
focos_ams_ontem_hoje_ref.0888416b-3248-309b-9ae9-f6b97cd5ae22,-56.049,-16.352,2019-09-19T17:35:00,AQUA_M-T,BARÃO DE MELGAÇO,MATO GROSSO,Brasil,POINT (-16.352 -56.049)
focos_ams_ontem_hoje_ref.088e5a57-fd4a-37fb-91f3-f6dcc5000ef2,-63.7,-29.656,2019-09-19T17:35:00,AQUA_M-T,Ojo de Agua,Santiago del Estero,Argentina,POINT (-29.656 -63.7)
focos_ams_ontem_hoje_ref.089575af-3c8c-3302-966b-195d95fcdbc5,-53.486,-6.015,2019-09-20T16:45:00,AQUA_M-T,ALTAMIRA,PARÁ,Brasil,POINT (-6.015 -53.486)
focos_ams_ontem_hoje_ref.08a0ba2a-1672-3ae2-93f4-947abd449ac8,-73.019,-7.878,2019-09-20T18:25:00,AQUA_M-T,RODRIGUES ALVES,ACRE,Brasil,POINT (-7.878 -73.019)
focos_ams_ontem_hoje_ref.08b6511d-d215-3e86-a4dd-752b7ba8373d,-59.406,-16.991,2019-09-19T17:35:00,AQUA_M-T,José Miguel de Velasco,Santa Cruz,Bolivia,POINT (-16.991 -59.406)
focos_ams_ontem_hoje_ref.08bcca34-7294-3e26-b7a4-8d28a71ec732,-67.57,-15.727,2019-09-20T18:20:00,AQUA_M-T,Nor Yungas,La Paz,Bolivia,POINT (-15.727 -67.57)
focos_ams_ontem_hoje_ref.08cb86c9-7012-3efc-a7b5-46fd4fbde849,-66.979,-13.877,2019-09-20T18:20:00,AQUA_M-T,José Ballivián,El Beni,Bolivia,POINT (-13.877 -66.979)
focos_ams_ontem_hoje_ref.08cf2109-9080-30d6-a8a5-10c1ce3c322e,-49.837,-16.866,2019-09-19T17:35:00,AQUA_M-T,PALMEIRAS DE GOIÁS,GOIÁS,Brasil,POINT (-16.866 -49.837)
focos_ams_ontem_hoje_ref.08ddb90d-e3f1-3ab9-a8c1-ca3cd107b4ee,-56.28,-28.196,2019-09-20T18:15:00,AQUA_M-T,Santo Tomé,Corrientes,Argentina,POINT (-28.196 -56.28)
focos_ams_ontem_hoje_ref.08f856af-844b-3bd6-9ab8-c92a0e086b3d,-57.013,-9.383,2019-09-20T16:45:00,AQUA_M-T,PARANAÍTA,MATO GROSSO,Brasil,POINT (-9.383 -57.013)
focos_ams_ontem_hoje_ref.090f2936-d33a-3594-a4b2-d17a1dc3a46d,-56.509,-16.965,2019-09-19T17:35:00,AQUA_M-T,BARÃO DE MELGAÇO,MATO GROSSO,Brasil,POINT (-16.965 -56.509)
focos_ams_ontem_hoje_ref.0910bd83-0585-360f-99de-517fc3dabac8,-48.1,-10.48,2019-09-20T16:45:00,AQUA_M-T,MONTE DO CARMO,TOCANTINS,Brasil,POINT (-10.48 -48.1)
focos_ams_ontem_hoje_ref.091fdc56-8cc1-3ae7-aae4-3f4142c1bc50,-58.816,-19.705,2019-09-20T18:20:00,AQUA_M-T,Fuerte Olimpo,Alto Paraguay,Paraguay,POINT (-19.705 -58.816)
focos_ams_ontem_hoje_ref.09413a35-f421-31ee-8236-a718e00552c5,-43.734,-8.52,2019-09-20T16:45:00,AQUA_M-T,ALVORADA DO GURGUÉIA,PIAUÍ,Brasil,POINT (-8.52 -43.734)
focos_ams_ontem_hoje_ref.09480afb-b167-3d31-9fe3-6a0aa1c10eab,-41.194,-4.77,2019-09-19T16:00:00,AQUA_M-T,PORANGA,CEARÁ,Brasil,POINT (-4.77 -41.194)
focos_ams_ontem_hoje_ref.0955ce79-8b2b-3f21-b20a-345c8a7966b3,-64.265,-7.429,2019-09-19T17:40:00,AQUA_M-T,CANUTAMA,AMAZONAS,Brasil,POINT (-7.429 -64.265)
focos_ams_ontem_hoje_ref.097c4de5-a0c8-3d58-993d-85b2b2edec1d,-67.652,-15.381,2019-09-19T17:40:00,AQUA_M-T,Larecaja,La Paz,Bolivia,POINT (-15.381 -67.652)
focos_ams_ontem_hoje_ref.097e1f93-6ffd-32eb-9682-15df86a0ae0e,-67.896,-2.942,2019-09-19T17:40:00,AQUA_M-T,TONANTINS,AMAZONAS,Brasil,POINT (-2.942 -67.896)
focos_ams_ontem_hoje_ref.0980f433-993d-3fba-86cb-4841f0d4e01c,-43.815,-5.997,2019-09-20T16:45:00,AQUA_M-T,BURITI BRAVO,MARANHÃO,Brasil,POINT (-5.997 -43.815)
focos_ams_ontem_hoje_ref.098341f2-fa01-311a-88c3-cf6be10b465d,-64.679,-19.251,2019-09-19T17:35:00,AQUA_M-T,Jaime Zudáñez,Chuquisaca,Bolivia,POINT (-19.251 -64.679)
focos_ams_ontem_hoje_ref.0985c59d-3e9e-3391-a47e-2af51954d799,-53.775,-4.071,2019-09-20T16:45:00,AQUA_M-T,URUARÁ,PARÁ,Brasil,POINT (-4.071 -53.775)
focos_ams_ontem_hoje_ref.098e644b-dbc5-3f48-bfc7-cef649cad02c,-56.984,-28.724,2019-09-20T18:15:00,AQUA_M-T,San Martín,Corrientes,Argentina,POINT (-28.724 -56.984)
focos_ams_ontem_hoje_ref.099a4f8f-c8f7-342b-bcdd-ed5f7a2fcf9b,-57.451,-23.652,2019-09-19T17:35:00,AQUA_M-T,Pozo Colorado,Presidente Hayes,Paraguay,POINT (-23.652 -57.451)
focos_ams_ontem_hoje_ref.099ea5ad-204c-32ad-9794-8d9c194d8b44,-62.269,-9.242,2019-09-19T17:40:00,AQUA_M-T,MACHADINHO D'OESTE,RONDÔNIA,Brasil,POINT (-9.242 -62.269)
focos_ams_ontem_hoje_ref.09a22afb-bc6d-379d-8774-9c216e8acc54,-55.981,-16.258,2019-09-19T17:35:00,AQUA_M-T,BARÃO DE MELGAÇO,MATO GROSSO,Brasil,POINT (-16.258 -55.981)
focos_ams_ontem_hoje_ref.09aaa0d9-bd3a-3e62-ad7b-c1278eab7b98,-46.897,-17.279,2019-09-20T16:40:00,AQUA_M-T,PARACATU,MINAS GERAIS,Brasil,POINT (-17.279 -46.897)
focos_ams_ontem_hoje_ref.09ce364e-f80a-38ab-a7d1-30f6c11d34a5,-69.486,-10.94,2019-09-20T18:20:00,AQUA_M-T,ASSIS BRASIL,ACRE,Brasil,POINT (-10.94 -69.486)
focos_ams_ontem_hoje_ref.09cfb2a6-53d1-389a-bfd1-e65fa2555ee0,-68.456,-9.787,2019-09-19T17:40:00,AQUA_M-T,RIO BRANCO,ACRE,Brasil,POINT (-9.787 -68.456)
focos_ams_ontem_hoje_ref.09e9556b-ce12-373e-856f-e2566bdbd4cc,-41.466,-17.889,2019-09-20T16:40:00,AQUA_M-T,TEÓFILO OTONI,MINAS GERAIS,Brasil,POINT (-17.889 -41.466)
focos_ams_ontem_hoje_ref.09eab7b9-8ffb-3a46-9411-c66526ea508a,-65.517,-15.088,2019-09-19T17:40:00,AQUA_M-T,Moxos,El Beni,Bolivia,POINT (-15.088 -65.517)
focos_ams_ontem_hoje_ref.09ebcdef-7510-327d-9eba-a66496dff112,-64.125,-17.471,2019-09-19T17:35:00,AQUA_M-T,Ichilo,Santa Cruz,Bolivia,POINT (-17.471 -64.125)
focos_ams_ontem_hoje_ref.09fc920d-55b1-31f5-8f59-11cc73b75f92,-42.201,-19.969,2019-09-20T16:40:00,AQUA_M-T,RAUL SOARES,MINAS GERAIS,Brasil,POINT (-19.969 -42.201)
focos_ams_ontem_hoje_ref.0a01c84e-c0ee-3562-adff-2405d80fff72,-63.175,-12.178,2019-09-19T17:40:00,AQUA_M-T,SERINGUEIRAS,RONDÔNIA,Brasil,POINT (-12.178 -63.175)
focos_ams_ontem_hoje_ref.0a1060b3-b49d-30e1-98b9-5108a352dc38,-64.394,-38.901,2019-09-20T18:15:00,AQUA_M-T,Pichi Mahuida,Río Negro,Argentina,POINT (-38.901 -64.394)
focos_ams_ontem_hoje_ref.0a10f97e-5d95-3a89-8f0f-1388e7f8495e,-60.755,-9.727,2019-09-19T17:40:00,AQUA_M-T,RONDOLÂNDIA,MATO GROSSO,Brasil,POINT (-9.727 -60.755)
focos_ams_ontem_hoje_ref.0a153f34-9ef6-3cf7-a6e7-41996879215f,-51.549,-17.767,2019-09-19T17:35:00,AQUA_M-T,JATAÍ,GOIÁS,Brasil,POINT (-17.767 -51.549)
focos_ams_ontem_hoje_ref.0a482a42-6137-37ac-ae1c-d66c45cdefb2,-57.474,-20.264,2019-09-19T17:35:00,AQUA_M-T,CORUMBÁ,MATO GROSSO DO SUL,Brasil,POINT (-20.264 -57.474)
focos_ams_ontem_hoje_ref.0a4a6e15-c73a-3adb-a972-25582822a03f,-59.831,-16.407,2019-09-19T17:35:00,AQUA_M-T,José Miguel de Velasco,Santa Cruz,Bolivia,POINT (-16.407 -59.831)
focos_ams_ontem_hoje_ref.0a569eee-5ed4-35f6-8488-898bdfe7ae1d,-58.67,-16.758,2019-09-19T17:35:00,AQUA_M-T,José Miguel de Velasco,Santa Cruz,Bolivia,POINT (-16.758 -58.67)
focos_ams_ontem_hoje_ref.0a59d9fc-474e-355d-937d-db8090c6fdf0,-58.479,-26.765,2019-09-20T18:15:00,AQUA_M-T,Laishi,Formosa,Argentina,POINT (-26.765 -58.479)
focos_ams_ontem_hoje_ref.0a5c1268-dd84-39cb-83de-7b28e40a29d9,-71.07,-8.768,2019-09-20T18:25:00,AQUA_M-T,FEIJÓ,ACRE,Brasil,POINT (-8.768 -71.07)
focos_ams_ontem_hoje_ref.0a619bdb-457f-32a1-b659-808529c1845b,-65.243,-11.827,2019-09-19T17:40:00,AQUA_M-T,Vaca Díez,El Beni,Bolivia,POINT (-11.827 -65.243)
focos_ams_ontem_hoje_ref.0a6ad9d2-efaf-359e-9377-4f84a84ca7ba,-47.791,-12.557,2019-09-20T16:45:00,AQUA_M-T,PARANÃ,TOCANTINS,Brasil,POINT (-12.557 -47.791)
focos_ams_ontem_hoje_ref.0a6fa53b-a8b3-3f32-940a-ec8cdc746dce,-42.101,-19.861,2019-09-20T16:40:00,AQUA_M-T,SANTA RITA DE MINAS,MINAS GERAIS,Brasil,POINT (-19.861 -42.101)
focos_ams_ontem_hoje_ref.0a7353a0-340e-3882-9bb1-0174622c6f9b,-68.419,-32.763,2019-09-19T19:10:00,AQUA_M-T,Lavalle,Mendoza,Argentina,POINT (-32.763 -68.419)
focos_ams_ontem_hoje_ref.0a7a559e-96db-311e-ac3d-ed16ae82f0ad,-42.89,-20.541,2019-09-20T16:40:00,AQUA_M-T,PONTE NOVA,MINAS GERAIS,Brasil,POINT (-20.541 -42.89)
focos_ams_ontem_hoje_ref.0a7eea06-40c9-3da5-8165-59544cf7e7d8,-47.588,-19.048,2019-09-19T17:35:00,AQUA_M-T,IRAÍ DE MINAS,MINAS GERAIS,Brasil,POINT (-19.048 -47.588)
focos_ams_ontem_hoje_ref.0a830f08-ed45-3a33-9300-1f0dc5f9c3f4,-64.933,-14.955,2019-09-20T18:20:00,AQUA_M-T,Cercado,El Beni,Bolivia,POINT (-14.955 -64.933)
focos_ams_ontem_hoje_ref.0a9a4a51-3200-300d-861a-f94006eac8cc,-55.992,-16.26,2019-09-19T17:35:00,AQUA_M-T,BARÃO DE MELGAÇO,MATO GROSSO,Brasil,POINT (-16.26 -55.992)
focos_ams_ontem_hoje_ref.0aa9bd1b-0a8e-30f0-8a8a-aeffc5171768,-43.98,-7.157,2019-09-20T16:45:00,AQUA_M-T,MARCOS PARENTE,PIAUÍ,Brasil,POINT (-7.157 -43.98)
focos_ams_ontem_hoje_ref.0aaaa484-9f2c-3669-bef3-a25ca5689dd1,-48.187,-13.66,2019-09-20T16:45:00,AQUA_M-T,MINAÇU,GOIÁS,Brasil,POINT (-13.66 -48.187)
focos_ams_ontem_hoje_ref.0ab45740-bc75-3f10-bef1-f88751d22866,-67.51,-12.753,2019-09-20T18:20:00,AQUA_M-T,Abel Iturralde,La Paz,Bolivia,POINT (-12.753 -67.51)
focos_ams_ontem_hoje_ref.0ac14e7d-ca2a-3291-931f-776d8c05bae7,-61.972,-23.013,2019-09-19T17:35:00,AQUA_M-T,Doctor Pedro P. Peña,Boquerón,Paraguay,POINT (-23.013 -61.972)
focos_ams_ontem_hoje_ref.0ac178ca-0750-3736-bc80-58601f5a5bd3,-54.518,-10.419,2019-09-19T17:40:00,AQUA_M-T,PEIXOTO DE AZEVEDO,MATO GROSSO,Brasil,POINT (-10.419 -54.518)
focos_ams_ontem_hoje_ref.0ac4bd3b-b3f1-335c-9211-9d15e6596979,-52.787,-32.029,2019-09-19T17:35:00,AQUA_M-T,PEDRO OSÓRIO,RIO GRANDE DO SUL,Brasil,POINT (-32.029 -52.787)
focos_ams_ontem_hoje_ref.0acc6545-b3d4-36ec-af30-3dc444b4ea99,-42.811,-20.99,2019-09-20T16:40:00,AQUA_M-T,VISCONDE DO RIO BRANCO,MINAS GERAIS,Brasil,POINT (-20.99 -42.811)
focos_ams_ontem_hoje_ref.0acd928b-2e95-3723-aaaa-447c18859023,-68.546,-31.772,2019-09-20T18:15:00,AQUA_M-T,Pocito,San Juan,Argentina,POINT (-31.772 -68.546)
focos_ams_ontem_hoje_ref.0ad086da-ce42-33fe-b94b-29560b43d57e,-45.663,-5.961,2019-09-20T16:45:00,AQUA_M-T,GRAJAÚ,MARANHÃO,Brasil,POINT (-5.961 -45.663)
focos_ams_ontem_hoje_ref.0ae8ba3a-a2b3-3fd1-8597-0a1c534ed8c8,-53.43,-6.295,2019-09-20T16:45:00,AQUA_M-T,ALTAMIRA,PARÁ,Brasil,POINT (-6.295 -53.43)
focos_ams_ontem_hoje_ref.0aec769c-467d-30a4-ae53-458c065dffdc,-59.035,-19.327,2019-09-19T17:35:00,AQUA_M-T,Chiquitos,Santa Cruz,Bolivia,POINT (-19.327 -59.035)
focos_ams_ontem_hoje_ref.0afc2013-a1f8-3b14-98f0-4eec60a06731,-53.964,-11.303,2019-09-19T17:40:00,AQUA_M-T,UNIÃO DO SUL,MATO GROSSO,Brasil,POINT (-11.303 -53.964)
focos_ams_ontem_hoje_ref.0aff0149-46a1-3f78-8a31-0596dadc276f,-59.554,-16.865,2019-09-19T17:35:00,AQUA_M-T,José Miguel de Velasco,Santa Cruz,Bolivia,POINT (-16.865 -59.554)
focos_ams_ontem_hoje_ref.0b00e1c7-8f82-386f-a2a4-a9f51390105b,-37.994,-5.194,2019-09-20T16:45:00,AQUA_M-T,LIMOEIRO DO NORTE,CEARÁ,Brasil,POINT (-5.194 -37.994)
focos_ams_ontem_hoje_ref.0b049ad7-9c41-3b87-b6a6-eda5b3c78683,-61.342,-25.753,2019-09-19T17:35:00,AQUA_M-T,Almirante Brown,Chaco,Argentina,POINT (-25.753 -61.342)
focos_ams_ontem_hoje_ref.0b066cdb-d263-3df8-9f3d-5a4c2d0695f0,-75.217,-8.384,2019-09-20T18:25:00,AQUA_M-T,Padre Abad,Ucayali,Peru,POINT (-8.384 -75.217)
focos_ams_ontem_hoje_ref.0b08fb88-c432-336a-9c30-d20d9bbbca78,-54.325,-1.614,2019-09-20T16:45:00,AQUA_M-T,MONTE ALEGRE,PARÁ,Brasil,POINT (-1.614 -54.325)
focos_ams_ontem_hoje_ref.0b148412-093a-3c2a-8d86-2dbe966acd1a,-56.613,-28.909,2019-09-20T18:15:00,AQUA_M-T,General Alvear,Corrientes,Argentina,POINT (-28.909 -56.613)
focos_ams_ontem_hoje_ref.0b1536e3-6a7b-3641-aef3-d73d8308c706,-65.359,-10.955,2019-09-20T18:20:00,AQUA_M-T,Vaca Díez,El Beni,Bolivia,POINT (-10.955 -65.359)
focos_ams_ontem_hoje_ref.0b23a15d-be8a-3daf-8b49-fc178c20b5db,-60.077,-16.321,2019-09-19T17:35:00,AQUA_M-T,José Miguel de Velasco,Santa Cruz,Bolivia,POINT (-16.321 -60.077)
focos_ams_ontem_hoje_ref.0b271823-5b69-396e-9f23-803d710907e0,-58.906,-19.686,2019-09-19T17:35:00,AQUA_M-T,Fuerte Olimpo,Alto Paraguay,Paraguay,POINT (-19.686 -58.906)
focos_ams_ontem_hoje_ref.0b32a422-6b8e-3311-aef5-c617e8008164,-42.753,-12.902,2019-09-20T16:45:00,AQUA_M-T,MACAÚBAS,BAHIA,Brasil,POINT (-12.902 -42.753)
focos_ams_ontem_hoje_ref.0b4fa678-6aa9-3bb0-af39-2e5cd4be701d,-65.17,-16.815,2019-09-19T17:35:00,AQUA_M-T,Carrasco,Cochabamba,Bolivia,POINT (-16.815 -65.17)
focos_ams_ontem_hoje_ref.0b4fce9c-5d16-3cca-b970-5b700e4a0d34,-69.232,-12.293,2019-09-20T18:20:00,AQUA_M-T,Tambopata,Madre de Dios,Peru,POINT (-12.293 -69.232)
focos_ams_ontem_hoje_ref.0b50764f-a9fd-386e-a663-f6b55f888a4e,-58.94,-19.544,2019-09-19T17:35:00,AQUA_M-T,Fuerte Olimpo,Alto Paraguay,Paraguay,POINT (-19.544 -58.94)
focos_ams_ontem_hoje_ref.0b5a7944-9e18-301f-9cda-0bd01380d5f8,-50.505,-17.832,2019-09-19T17:35:00,AQUA_M-T,SANTA HELENA DE GOIÁS,GOIÁS,Brasil,POINT (-17.832 -50.505)
focos_ams_ontem_hoje_ref.0b5f3b54-d5b5-333b-9828-4e01a70d3332,-43.791,-19.877,2019-09-19T16:00:00,AQUA_M-T,SABARÁ,MINAS GERAIS,Brasil,POINT (-19.877 -43.791)
focos_ams_ontem_hoje_ref.0b62f293-4138-398f-ae33-9d1cbbd941d1,-75.341,-8.982,2019-09-19T19:20:00,AQUA_M-T,Padre Abad,Ucayali,Peru,POINT (-8.982 -75.341)
focos_ams_ontem_hoje_ref.0b631a63-2c91-322e-9ac3-c24882eee475,-58.451,-17.941,2019-09-19T17:35:00,AQUA_M-T,José Miguel de Velasco,Santa Cruz,Bolivia,POINT (-17.941 -58.451)
focos_ams_ontem_hoje_ref.0b6c39e1-a4dd-3685-937a-177fcd41fabe,-64.877,-12.464,2019-09-20T18:20:00,AQUA_M-T,Mamoré,El Beni,Bolivia,POINT (-12.464 -64.877)
focos_ams_ontem_hoje_ref.0b6f7f70-beaf-3676-9ca4-890a9599ade1,-65.9,-15.426,2019-09-20T18:20:00,AQUA_M-T,Moxos,El Beni,Bolivia,POINT (-15.426 -65.9)
focos_ams_ontem_hoje_ref.0b713ac2-6770-3d1e-9579-268e884ab3c1,-46.305,-6.936,2019-09-20T16:45:00,AQUA_M-T,FORTALEZA DOS NOGUEIRAS,MARANHÃO,Brasil,POINT (-6.936 -46.305)
focos_ams_ontem_hoje_ref.0b76c0a0-b240-3544-a9f3-a057fc651106,-61.392,-25.587,2019-09-19T17:35:00,AQUA_M-T,Almirante Brown,Chaco,Argentina,POINT (-25.587 -61.392)
focos_ams_ontem_hoje_ref.0b7de476-b393-3507-88f7-bd088c32d0ec,-61.581,-26.575,2019-09-19T17:35:00,AQUA_M-T,Almirante Brown,Chaco,Argentina,POINT (-26.575 -61.581)
focos_ams_ontem_hoje_ref.0b8a4861-ebb7-3d00-b32e-78cb9a27b017,-58.18,-17.176,2019-09-19T17:35:00,AQUA_M-T,CÁCERES,MATO GROSSO,Brasil,POINT (-17.176 -58.18)
focos_ams_ontem_hoje_ref.0b8d3d11-5601-36a4-b781-380f3e813e58,-51.472,-6.612,2019-09-20T16:45:00,AQUA_M-T,SÃO FÉLIX DO XINGU,PARÁ,Brasil,POINT (-6.612 -51.472)
focos_ams_ontem_hoje_ref.0b996fe5-f9b7-3776-bd40-a35e32c4feb8,-58.563,-18.048,2019-09-19T17:35:00,AQUA_M-T,Chiquitos,Santa Cruz,Bolivia,POINT (-18.048 -58.563)
focos_ams_ontem_hoje_ref.0bb04ee8-7c68-3eba-af7c-41234c484a37,-47.253,-17.086,2019-09-19T17:35:00,AQUA_M-T,CRISTALINA,GOIÁS,Brasil,POINT (-17.086 -47.253)
focos_ams_ontem_hoje_ref.0bb09ffd-8882-3893-8bb8-567479019891,-37.599,-7.128,2019-09-20T16:45:00,AQUA_M-T,CATINGUEIRA,PARAÍBA,Brasil,POINT (-7.128 -37.599)
focos_ams_ontem_hoje_ref.0bbfb94d-a3aa-37f1-a118-4cc8374e6f41,-45.639,-10.041,2019-09-20T16:45:00,AQUA_M-T,BARREIRAS DO PIAUÍ,PIAUÍ,Brasil,POINT (-10.041 -45.639)
focos_ams_ontem_hoje_ref.0bd221a3-e8d0-3442-8c85-4c26bf7f7ab5,-58.842,-19.74,2019-09-19T17:35:00,AQUA_M-T,Fuerte Olimpo,Alto Paraguay,Paraguay,POINT (-19.74 -58.842)
focos_ams_ontem_hoje_ref.0bd275a1-a605-321f-87d7-15cc2c37ab59,-68.469,3.976,2019-09-19T17:45:00,AQUA_M-T,Santa Rita,Vichada,Colombia,POINT (3.976 -68.469)
focos_ams_ontem_hoje_ref.0bf1eba7-f647-35c9-bd31-aec98c1efe6c,-44.222,-6.119,2019-09-20T16:45:00,AQUA_M-T,COLINAS,MARANHÃO,Brasil,POINT (-6.119 -44.222)
focos_ams_ontem_hoje_ref.0bf2d7ec-b501-33de-8953-fc942a2c9a44,-49.575,-16.922,2019-09-19T17:35:00,AQUA_M-T,GUAPÓ,GOIÁS,Brasil,POINT (-16.922 -49.575)
focos_ams_ontem_hoje_ref.0bf88138-a600-364d-a196-4fb6a63bbca5,-72.876,-12.715,2019-09-20T18:20:00,AQUA_M-T,La Convención,Cusco,Peru,POINT (-12.715 -72.876)
focos_ams_ontem_hoje_ref.0bf98384-dbb2-3a84-978d-356ad440b455,-72.887,-12.717,2019-09-20T18:20:00,AQUA_M-T,La Convención,Cusco,Peru,POINT (-12.717 -72.887)
focos_ams_ontem_hoje_ref.0bfcb15d-ce75-3a81-bfc0-4d07df3da590,-50.575,-22.056,2019-09-19T17:35:00,AQUA_M-T,TUPÃ,SÃO PAULO,Brasil,POINT (-22.056 -50.575)
focos_ams_ontem_hoje_ref.0bff8aac-67f4-3cba-9381-a012a87e2646,-67.981,-9.262,2019-09-19T17:40:00,AQUA_M-T,BOCA DO ACRE,AMAZONAS,Brasil,POINT (-9.262 -67.981)
focos_ams_ontem_hoje_ref.0c145687-4a1c-39b6-90fd-db060ece7ef9,-71.069,-8.777,2019-09-20T18:25:00,AQUA_M-T,FEIJÓ,ACRE,Brasil,POINT (-8.777 -71.069)
focos_ams_ontem_hoje_ref.0c250387-39b3-33a5-bb61-7af2bf96c572,-65.025,-15.224,2019-09-20T18:20:00,AQUA_M-T,Marbán,El Beni,Bolivia,POINT (-15.224 -65.025)
focos_ams_ontem_hoje_ref.0c262625-d39f-35cf-8677-c011ab4ce5d4,-53.717,-3.722,2019-09-20T16:45:00,AQUA_M-T,URUARÁ,PARÁ,Brasil,POINT (-3.722 -53.717)
focos_ams_ontem_hoje_ref.0c336615-c26d-339d-aacc-55af8900008d,-52.872,-12.763,2019-09-19T17:40:00,AQUA_M-T,CANARANA,MATO GROSSO,Brasil,POINT (-12.763 -52.872)
focos_ams_ontem_hoje_ref.0c3b52b5-ddb5-381e-bf70-5a1222bbc793,-50.748,-17.946,2019-09-19T17:35:00,AQUA_M-T,RIO VERDE,GOIÁS,Brasil,POINT (-17.946 -50.748)
focos_ams_ontem_hoje_ref.0c3b9b35-68af-3918-aa84-38b5a9841572,-45.319,-7.744,2019-09-19T16:00:00,AQUA_M-T,RIBEIRO GONÇALVES,PIAUÍ,Brasil,POINT (-7.744 -45.319)
focos_ams_ontem_hoje_ref.0c41de2c-0703-3487-8c6e-fefa30838620,-44.067,-19.738,2019-09-20T16:40:00,AQUA_M-T,RIBEIRÃO DAS NEVES,MINAS GERAIS,Brasil,POINT (-19.738 -44.067)
focos_ams_ontem_hoje_ref.0c6a8b23-2729-3647-ba6e-36581311df89,-57.493,-22.437,2019-09-19T17:35:00,AQUA_M-T,San Carlos,Concepción,Paraguay,POINT (-22.437 -57.493)
focos_ams_ontem_hoje_ref.0c6de522-90a1-3589-ae70-9b0ae1189588,-59.154,-30.215,2019-09-20T18:15:00,AQUA_M-T,Esquina,Corrientes,Argentina,POINT (-30.215 -59.154)
focos_ams_ontem_hoje_ref.0c896a65-cb7a-3340-8806-6d23cafcfb0f,-50.22,-9.889,2019-09-20T16:45:00,AQUA_M-T,PIUM,TOCANTINS,Brasil,POINT (-9.889 -50.22)
focos_ams_ontem_hoje_ref.0c950b84-9794-369f-9c59-caa9e139598f,-60.651,-25.004,2019-09-19T17:35:00,AQUA_M-T,Patiño,Formosa,Argentina,POINT (-25.004 -60.651)
focos_ams_ontem_hoje_ref.0c970f61-e10b-337f-88d5-b527039d82a1,-42.594,-22.213,2019-09-19T15:55:00,AQUA_M-T,NOVA FRIBURGO,RIO DE JANEIRO,Brasil,POINT (-22.213 -42.594)
focos_ams_ontem_hoje_ref.0ca9038d-711b-3d37-9c7e-2b6f0359046d,-57.846,-22.789,2019-09-19T17:35:00,AQUA_M-T,Concepción,Concepción,Paraguay,POINT (-22.789 -57.846)
focos_ams_ontem_hoje_ref.0ca963f4-e45a-3228-9cbd-e4818427ce9f,-69.848,-12.88,2019-09-20T18:20:00,AQUA_M-T,Tambopata,Madre de Dios,Peru,POINT (-12.88 -69.848)
focos_ams_ontem_hoje_ref.0cb59874-ce45-32db-a598-a9aa86128bbd,-46.267,-8.743,2019-09-20T16:45:00,AQUA_M-T,TASSO FRAGOSO,MARANHÃO,Brasil,POINT (-8.743 -46.267)
focos_ams_ontem_hoje_ref.0cba8e53-ed4f-3c9e-8a2b-7508c5337de6,-62.098,-25.981,2019-09-19T17:35:00,AQUA_M-T,Copo,Santiago del Estero,Argentina,POINT (-25.981 -62.098)
focos_ams_ontem_hoje_ref.0cc28ae5-ebb5-3a57-a206-23bb1d6ffab6,-44.843,-6.404,2019-09-20T16:45:00,AQUA_M-T,MIRADOR,MARANHÃO,Brasil,POINT (-6.404 -44.843)
focos_ams_ontem_hoje_ref.0cc5ae2b-8c15-31ae-b331-6457674d3f06,-45.676,-5.493,2019-09-20T16:45:00,AQUA_M-T,JENIPAPO DOS VIEIRAS,MARANHÃO,Brasil,POINT (-5.493 -45.676)
focos_ams_ontem_hoje_ref.0ccbc1ba-6931-3f99-990a-c4d640f3420a,-39.962,-18.74,2019-09-19T16:00:00,AQUA_M-T,SÃO MATEUS,ESPÍRITO SANTO,Brasil,POINT (-18.74 -39.962)
focos_ams_ontem_hoje_ref.0cdeadbe-cb4d-3306-becb-969aae3bac2c,-45.321,-5.984,2019-09-20T16:45:00,AQUA_M-T,FERNANDO FALCÃO,MARANHÃO,Brasil,POINT (-5.984 -45.321)
focos_ams_ontem_hoje_ref.0ce484c4-04c0-3197-a625-835d71b6c10a,-42.993,-7.16,2019-09-20T16:45:00,AQUA_M-T,FLORIANO,PIAUÍ,Brasil,POINT (-7.16 -42.993)
focos_ams_ontem_hoje_ref.0cebf096-947f-3c64-b068-258d81f73326,-40.85,-16.212,2019-09-20T16:40:00,AQUA_M-T,ALMENARA,MINAS GERAIS,Brasil,POINT (-16.212 -40.85)
focos_ams_ontem_hoje_ref.0cf38507-afda-3e78-88a3-cf9b919e9501,-60.518,-9.124,2019-09-19T17:40:00,AQUA_M-T,COLNIZA,MATO GROSSO,Brasil,POINT (-9.124 -60.518)
focos_ams_ontem_hoje_ref.0cf47107-6dc1-34dd-98c2-6d375907bcba,-59.993,-18.274,2019-09-19T17:35:00,AQUA_M-T,Chiquitos,Santa Cruz,Bolivia,POINT (-18.274 -59.993)
focos_ams_ontem_hoje_ref.0cfb3867-64f4-3f3e-81e7-598f2dcf4d07,-43.081,-19.437,2019-09-20T16:40:00,AQUA_M-T,SANTA MARIA DE ITABIRA,MINAS GERAIS,Brasil,POINT (-19.437 -43.081)
focos_ams_ontem_hoje_ref.0cff4d76-c770-3bdc-bce7-18f1096a6a1d,-55.066,-11.331,2019-09-19T17:40:00,AQUA_M-T,CLÁUDIA,MATO GROSSO,Brasil,POINT (-11.331 -55.066)
focos_ams_ontem_hoje_ref.0d191026-b778-3797-b6e9-20c4acf565fd,-51.858,-9.452,2019-09-20T16:45:00,AQUA_M-T,SÃO FÉLIX DO XINGU,PARÁ,Brasil,POINT (-9.452 -51.858)
focos_ams_ontem_hoje_ref.0d26a57c-f957-334b-ab56-679ad973fbd2,-55.04,-7.237,2019-09-20T16:45:00,AQUA_M-T,ALTAMIRA,PARÁ,Brasil,POINT (-7.237 -55.04)
focos_ams_ontem_hoje_ref.0d30dab3-2f15-3551-a0b1-1a71e1095c64,-62.33,-9.48,2019-09-20T18:20:00,AQUA_M-T,MACHADINHO D'OESTE,RONDÔNIA,Brasil,POINT (-9.48 -62.33)
focos_ams_ontem_hoje_ref.0d3e73e9-3fa2-350f-92b3-a7cd1d168d77,-43.153,-6.478,2019-09-19T16:00:00,AQUA_M-T,BARÃO DE GRAJAÚ,MARANHÃO,Brasil,POINT (-6.478 -43.153)
focos_ams_ontem_hoje_ref.0d591a42-dbab-3606-8282-6ce925b50b72,-45.711,-10.54,2019-09-20T16:45:00,AQUA_M-T,FORMOSA DO RIO PRETO,BAHIA,Brasil,POINT (-10.54 -45.711)
focos_ams_ontem_hoje_ref.0d5d1a6e-68d5-3222-9663-b21ea88c4a15,-43.052,-21.518,2019-09-19T15:55:00,AQUA_M-T,SÃO JOÃO NEPOMUCENO,MINAS GERAIS,Brasil,POINT (-21.518 -43.052)
focos_ams_ontem_hoje_ref.0d5e546b-2492-3a23-8d3a-834869046913,-51.547,-17.78,2019-09-19T17:35:00,AQUA_M-T,JATAÍ,GOIÁS,Brasil,POINT (-17.78 -51.547)
focos_ams_ontem_hoje_ref.0d608703-8689-37cc-8efe-e2b14249e9c1,-42.1,-18.746,2019-09-20T16:40:00,AQUA_M-T,GOVERNADOR VALADARES,MINAS GERAIS,Brasil,POINT (-18.746 -42.1)
focos_ams_ontem_hoje_ref.0d62089a-4de3-35c8-83b0-30b350a7f2be,-51.49,-17.189,2019-09-20T16:40:00,AQUA_M-T,CAIAPÔNIA,GOIÁS,Brasil,POINT (-17.189 -51.49)
focos_ams_ontem_hoje_ref.0d673956-c631-38db-9eb9-8f2b8df8175e,-59.364,-17.013,2019-09-19T17:35:00,AQUA_M-T,José Miguel de Velasco,Santa Cruz,Bolivia,POINT (-17.013 -59.364)
focos_ams_ontem_hoje_ref.0d711e91-68c9-35b7-a8de-4b8895e3ce21,-53.194,-6.38,2019-09-20T16:45:00,AQUA_M-T,SÃO FÉLIX DO XINGU,PARÁ,Brasil,POINT (-6.38 -53.194)
focos_ams_ontem_hoje_ref.0d714d18-1f91-3914-aa6f-954db28cf3f1,-59.236,-16.039,2019-09-19T17:35:00,AQUA_M-T,PORTO ESPERIDIÃO,MATO GROSSO,Brasil,POINT (-16.039 -59.236)
focos_ams_ontem_hoje_ref.0d83a078-ba2f-3961-9dd6-fd5aaccd0523,-50.72,-5.211,2019-09-19T17:40:00,AQUA_M-T,MARABÁ,PARÁ,Brasil,POINT (-5.211 -50.72)
focos_ams_ontem_hoje_ref.0d840043-45ac-377d-9143-c821823be2ee,-57.745,-22.252,2019-09-19T17:35:00,AQUA_M-T,San Lázaro,Concepción,Paraguay,POINT (-22.252 -57.745)
focos_ams_ontem_hoje_ref.0d854ef2-bcd9-381c-a201-09dffc8b6f14,-57.811,-19.329,2019-09-19T17:35:00,AQUA_M-T,CORUMBÁ,MATO GROSSO DO SUL,Brasil,POINT (-19.329 -57.811)
focos_ams_ontem_hoje_ref.0d89732d-b2ea-36ff-b8ac-85b69e8669bf,-62.978,-27.582,2019-09-19T17:35:00,AQUA_M-T,Moreno,Santiago del Estero,Argentina,POINT (-27.582 -62.978)
focos_ams_ontem_hoje_ref.0da555d2-8576-3706-b8dd-e6483794b9b4,-65.072,-28.803,2019-09-19T17:35:00,AQUA_M-T,La Paz,Catamarca,Argentina,POINT (-28.803 -65.072)
focos_ams_ontem_hoje_ref.0da91dc8-6f35-3d2c-ad62-799690b1994e,-59.401,-16.963,2019-09-19T17:35:00,AQUA_M-T,José Miguel de Velasco,Santa Cruz,Bolivia,POINT (-16.963 -59.401)
focos_ams_ontem_hoje_ref.0daba914-86a1-34e5-afaa-0ee554d0cdee,-61.385,-7.8,2019-09-20T18:25:00,AQUA_M-T,MANICORÉ,AMAZONAS,Brasil,POINT (-7.8 -61.385)
focos_ams_ontem_hoje_ref.0dc1bb25-095b-3594-8677-8172835ac4e2,-59.006,-6.946,2019-09-19T17:40:00,AQUA_M-T,APUÍ,AMAZONAS,Brasil,POINT (-6.946 -59.006)
focos_ams_ontem_hoje_ref.0dd9281e-3882-361c-a5bc-487a7bf41c75,-61.44,-7.899,2019-09-20T18:25:00,AQUA_M-T,MANICORÉ,AMAZONAS,Brasil,POINT (-7.899 -61.44)
focos_ams_ontem_hoje_ref.0dda3418-ff4b-3740-a3af-07bf72a44984,-48.259,-9.448,2019-09-20T16:45:00,AQUA_M-T,TOCANTÍNIA,TOCANTINS,Brasil,POINT (-9.448 -48.259)
focos_ams_ontem_hoje_ref.0ddf6923-26e2-35ba-9f85-1f422698b24c,-54.977,-7.546,2019-09-20T16:45:00,AQUA_M-T,ALTAMIRA,PARÁ,Brasil,POINT (-7.546 -54.977)
focos_ams_ontem_hoje_ref.0de6f948-4d42-396d-8d19-93c20ed63a7c,-44.021,-7.828,2019-09-19T16:00:00,AQUA_M-T,SEBASTIÃO LEAL,PIAUÍ,Brasil,POINT (-7.828 -44.021)
focos_ams_ontem_hoje_ref.0e04cd44-954f-3bd7-afa9-218902e76f90,-51.526,-11.187,2019-09-19T17:40:00,AQUA_M-T,CANABRAVA DO NORTE,MATO GROSSO,Brasil,POINT (-11.187 -51.526)
focos_ams_ontem_hoje_ref.0e0f0136-bac7-3fde-9c38-7816f65d3f6c,-60.103,-5.173,2019-09-19T17:40:00,AQUA_M-T,NOVO ARIPUANÃ,AMAZONAS,Brasil,POINT (-5.173 -60.103)
focos_ams_ontem_hoje_ref.0e2adc16-ac40-3503-a4df-d35b9f7daf96,-46.347,-17.905,2019-09-20T16:40:00,AQUA_M-T,PRESIDENTE OLEGÁRIO,MINAS GERAIS,Brasil,POINT (-17.905 -46.347)
focos_ams_ontem_hoje_ref.0e3360a0-2f10-34fa-b514-f63545f111b7,-54.992,-7.267,2019-09-19T17:40:00,AQUA_M-T,ALTAMIRA,PARÁ,Brasil,POINT (-7.267 -54.992)
focos_ams_ontem_hoje_ref.0e406fbe-d318-3997-bd55-5b7468802567,-55.198,-6.439,2019-09-20T16:45:00,AQUA_M-T,ALTAMIRA,PARÁ,Brasil,POINT (-6.439 -55.198)
focos_ams_ontem_hoje_ref.0e419b0b-5420-3a27-9087-48b700226eae,-46.906,-17.257,2019-09-20T16:40:00,AQUA_M-T,PARACATU,MINAS GERAIS,Brasil,POINT (-17.257 -46.906)
focos_ams_ontem_hoje_ref.0e4b2479-9884-3360-8753-4f5c11b90846,-46.069,-9.329,2019-09-19T16:00:00,AQUA_M-T,ALTO PARNAÍBA,MARANHÃO,Brasil,POINT (-9.329 -46.069)
focos_ams_ontem_hoje_ref.0e4f11cb-64ca-39f4-a31a-901ee2f49b93,-45.56,-7.5,2019-09-20T16:45:00,AQUA_M-T,LORETO,MARANHÃO,Brasil,POINT (-7.5 -45.56)
focos_ams_ontem_hoje_ref.0e506a06-e00d-3d29-912a-f9d368b3d1ec,-61.316,-29.631,2019-09-20T18:15:00,AQUA_M-T,Nueve de Julio,Santa Fe,Argentina,POINT (-29.631 -61.316)
focos_ams_ontem_hoje_ref.0e508c81-400c-39f8-b0ca-202ea87d2cf0,-60.597,-18.364,2019-09-19T17:35:00,AQUA_M-T,Cordillera,Santa Cruz,Bolivia,POINT (-18.364 -60.597)
focos_ams_ontem_hoje_ref.0e5b41d0-9ba0-3736-ae33-81e45c8bc8b7,-58.017,-29.009,2019-09-20T18:15:00,AQUA_M-T,Mercedes,Corrientes,Argentina,POINT (-29.009 -58.017)
focos_ams_ontem_hoje_ref.0e6e9261-1e97-3ce6-825e-4594db2d2746,-48.246,-8.194,2019-09-20T16:45:00,AQUA_M-T,TUPIRATINS,TOCANTINS,Brasil,POINT (-8.194 -48.246)
focos_ams_ontem_hoje_ref.0e71acc3-f3bb-3741-8123-6c6800072660,-56.571,-17.672,2019-09-19T17:35:00,AQUA_M-T,CORUMBÁ,MATO GROSSO DO SUL,Brasil,POINT (-17.672 -56.571)
focos_ams_ontem_hoje_ref.0e764f5c-f821-3e5d-a2b4-35732c34399c,-64.8,-10.285,2019-09-19T17:40:00,AQUA_M-T,NOVA MAMORÉ,RONDÔNIA,Brasil,POINT (-10.285 -64.8)
focos_ams_ontem_hoje_ref.0e7fc76c-c67b-3f3c-9ff0-b6f5d504e66b,-60.14,-6.751,2019-09-19T17:40:00,AQUA_M-T,NOVO ARIPUANÃ,AMAZONAS,Brasil,POINT (-6.751 -60.14)
focos_ams_ontem_hoje_ref.0e7fe2ed-333f-31a9-a02c-014a38f88062,-43.432,-18.975,2019-09-20T16:40:00,AQUA_M-T,CONCEIÇÃO DO MATO DENTRO,MINAS GERAIS,Brasil,POINT (-18.975 -43.432)
focos_ams_ontem_hoje_ref.0e80aa61-99b1-32a8-9d18-22d064b971b0,-47.664,-19.818,2019-09-20T16:40:00,AQUA_M-T,CONQUISTA,MINAS GERAIS,Brasil,POINT (-19.818 -47.664)
focos_ams_ontem_hoje_ref.0e8e4ee9-2533-3f6c-92a7-cc63e5d6056e,-63.904,-15.425,2019-09-19T17:40:00,AQUA_M-T,Marbán,El Beni,Bolivia,POINT (-15.425 -63.904)
focos_ams_ontem_hoje_ref.0e8e7a6d-112a-3331-84f0-d3d6270fb156,-67.69,-9.495,2019-09-19T17:40:00,AQUA_M-T,PORTO ACRE,ACRE,Brasil,POINT (-9.495 -67.69)
focos_ams_ontem_hoje_ref.0ea09c26-882c-3b0d-b66b-9c72e1a0ca38,-64.181,-27.534,2019-09-19T17:35:00,AQUA_M-T,Banda,Santiago del Estero,Argentina,POINT (-27.534 -64.181)
focos_ams_ontem_hoje_ref.0ed5e612-37d0-37d2-afb3-f2147c92a4fd,-47.651,-10.776,2019-09-20T16:45:00,AQUA_M-T,PONTE ALTA DO TOCANTINS,TOCANTINS,Brasil,POINT (-10.776 -47.651)
focos_ams_ontem_hoje_ref.0ee60b7d-9cec-3699-94f3-479700c5d207,-60.768,-9.849,2019-09-19T17:40:00,AQUA_M-T,RONDOLÂNDIA,MATO GROSSO,Brasil,POINT (-9.849 -60.768)
focos_ams_ontem_hoje_ref.0ee9b4cd-5747-3f5b-84c2-8ae4dda1b468,-71.399,-4.041,2019-09-20T18:25:00,AQUA_M-T,Mariscal Ramón Castilla,Loreto,Peru,POINT (-4.041 -71.399)
focos_ams_ontem_hoje_ref.0eec4480-0f37-39a4-aa8d-13498e90a8d6,-60.26,-5.122,2019-09-19T17:40:00,AQUA_M-T,NOVO ARIPUANÃ,AMAZONAS,Brasil,POINT (-5.122 -60.26)
focos_ams_ontem_hoje_ref.0efb06fa-334d-3a23-8414-758ce221829e,-63.92,-13.999,2019-09-19T17:40:00,AQUA_M-T,Vaca Díez,El Beni,Bolivia,POINT (-13.999 -63.92)
focos_ams_ontem_hoje_ref.0f03931b-c0b0-3d87-a963-bfbe1e247d09,-68.292,-10.779,2019-09-19T17:40:00,AQUA_M-T,XAPURI,ACRE,Brasil,POINT (-10.779 -68.292)
focos_ams_ontem_hoje_ref.0f08ff1b-f962-3e63-83f1-a461b1890f9a,-41.452,-14.937,2019-09-19T16:00:00,AQUA_M-T,TREMEDAL,BAHIA,Brasil,POINT (-14.937 -41.452)
focos_ams_ontem_hoje_ref.0f09ce5b-701b-3c3e-93cc-b879a7d213e1,-54.423,-17.671,2019-09-19T17:35:00,AQUA_M-T,SONORA,MATO GROSSO DO SUL,Brasil,POINT (-17.671 -54.423)
focos_ams_ontem_hoje_ref.0f0d1c50-29d0-3758-9356-6fdec00599a2,-69.945,-7.536,2019-09-19T17:40:00,AQUA_M-T,ENVIRA,AMAZONAS,Brasil,POINT (-7.536 -69.945)
focos_ams_ontem_hoje_ref.0f0de8c4-916c-37fe-b52a-5a48e8cf2096,-59.009,-19.305,2019-09-19T17:35:00,AQUA_M-T,Chiquitos,Santa Cruz,Bolivia,POINT (-19.305 -59.009)
focos_ams_ontem_hoje_ref.0f136c19-546d-3959-b1a3-36bc982b28d6,-64.042,-9.655,2019-09-20T18:20:00,AQUA_M-T,PORTO VELHO,RONDÔNIA,Brasil,POINT (-9.655 -64.042)
focos_ams_ontem_hoje_ref.0f1e7d79-8138-38fd-9aa0-61fc5f8458c4,-44.001,-7.856,2019-09-20T16:45:00,AQUA_M-T,SEBASTIÃO LEAL,PIAUÍ,Brasil,POINT (-7.856 -44.001)
focos_ams_ontem_hoje_ref.0f26a938-07a3-3374-9989-4ab321717519,-42.554,-7.137,2019-09-20T16:45:00,AQUA_M-T,SÃO FRANCISCO DO PIAUÍ,PIAUÍ,Brasil,POINT (-7.137 -42.554)
focos_ams_ontem_hoje_ref.0f2d2f1d-81c8-3c45-b4ee-8d1b53e823dc,-41.096,-13.75,2019-09-20T16:40:00,AQUA_M-T,CONTENDAS DO SINCORÁ,BAHIA,Brasil,POINT (-13.75 -41.096)
focos_ams_ontem_hoje_ref.0f4391de-2468-336d-a62c-e246c44e0b2e,-55.08,-6.62,2019-09-20T16:45:00,AQUA_M-T,ALTAMIRA,PARÁ,Brasil,POINT (-6.62 -55.08)
focos_ams_ontem_hoje_ref.0f549276-8c11-3b36-8c2e-be26d0dfd789,-50.767,-13.421,2019-09-19T17:40:00,AQUA_M-T,COCALINHO,MATO GROSSO,Brasil,POINT (-13.421 -50.767)
focos_ams_ontem_hoje_ref.0f653773-84b7-381e-ba55-b3fce1a1f8bd,-45.382,-7.317,2019-09-20T16:45:00,AQUA_M-T,LORETO,MARANHÃO,Brasil,POINT (-7.317 -45.382)
focos_ams_ontem_hoje_ref.0f6f7965-ead6-3a8d-87b6-13adf5673ebe,-59.34,-16.89,2019-09-19T17:35:00,AQUA_M-T,José Miguel de Velasco,Santa Cruz,Bolivia,POINT (-16.89 -59.34)
focos_ams_ontem_hoje_ref.0f7ea4d1-cd3d-39e3-a2bd-51bcb8ed837b,-44.021,-8.606,2019-09-20T16:45:00,AQUA_M-T,CRISTINO CASTRO,PIAUÍ,Brasil,POINT (-8.606 -44.021)
focos_ams_ontem_hoje_ref.0f8a68dc-6f94-306a-bfba-c3f7c5a0e480,-68.974,-9.612,2019-09-20T18:20:00,AQUA_M-T,SENA MADUREIRA,ACRE,Brasil,POINT (-9.612 -68.974)
focos_ams_ontem_hoje_ref.0f8b123d-1d58-3094-90cd-e4f0aab93da9,-58.312,-9.944,2019-09-19T17:40:00,AQUA_M-T,COTRIGUAÇU,MATO GROSSO,Brasil,POINT (-9.944 -58.312)
focos_ams_ontem_hoje_ref.0f9449a5-daae-30d9-a531-118ff52d4019,-65.933,-15.388,2019-09-20T18:20:00,AQUA_M-T,Moxos,El Beni,Bolivia,POINT (-15.388 -65.933)
focos_ams_ontem_hoje_ref.0f9da2ee-acc7-34f0-803b-1bf9628564b0,-50.149,-10.919,2019-09-20T16:45:00,AQUA_M-T,LAGOA DA CONFUSÃO,TOCANTINS,Brasil,POINT (-10.919 -50.149)
focos_ams_ontem_hoje_ref.0faa59e8-baaf-3fe9-926f-6b81e12a86e2,-67.841,-9.375,2019-09-19T17:40:00,AQUA_M-T,BOCA DO ACRE,AMAZONAS,Brasil,POINT (-9.375 -67.841)
focos_ams_ontem_hoje_ref.0faecd45-8bf5-3bda-bc90-ca83767e5903,-59.93,-9.996,2019-09-19T17:40:00,AQUA_M-T,ARIPUANÃ,MATO GROSSO,Brasil,POINT (-9.996 -59.93)
focos_ams_ontem_hoje_ref.0faef0d6-fa24-3870-9602-2e0da973f6f8,-62.97,-27.594,2019-09-19T17:35:00,AQUA_M-T,Moreno,Santiago del Estero,Argentina,POINT (-27.594 -62.97)
focos_ams_ontem_hoje_ref.0fbe7bf1-879e-3667-82a4-4e44e6f2ca72,-41.602,-6.979,2019-09-20T16:45:00,AQUA_M-T,PICOS,PIAUÍ,Brasil,POINT (-6.979 -41.602)
focos_ams_ontem_hoje_ref.0fc100cf-e9aa-3002-8b4d-cf1e6381ae74,-46.229,-5.325,2019-09-19T16:00:00,AQUA_M-T,ARAME,MARANHÃO,Brasil,POINT (-5.325 -46.229)
focos_ams_ontem_hoje_ref.0fd18828-2a20-3e3b-a848-b14915cbb48d,-43.018,-18.788,2019-09-19T16:00:00,AQUA_M-T,GUANHÃES,MINAS GERAIS,Brasil,POINT (-18.788 -43.018)
focos_ams_ontem_hoje_ref.0fd256e0-503b-3077-bd32-05d7c44d871d,-63.484,-8.675,2019-09-19T17:40:00,AQUA_M-T,CANDEIAS DO JAMARI,RONDÔNIA,Brasil,POINT (-8.675 -63.484)
focos_ams_ontem_hoje_ref.0ff2aa44-794d-3a18-b8cb-7d985ee8c620,-59.051,-19.265,2019-09-19T17:35:00,AQUA_M-T,Chiquitos,Santa Cruz,Bolivia,POINT (-19.265 -59.051)
focos_ams_ontem_hoje_ref.0ff7928b-856a-3529-83c4-833d27ca8c30,-51.825,-6.007,2019-09-20T16:45:00,AQUA_M-T,SÃO FÉLIX DO XINGU,PARÁ,Brasil,POINT (-6.007 -51.825)
focos_ams_ontem_hoje_ref.0ffe47aa-0f8e-3b74-81d0-4bbf5919c592,-50.546,-17.858,2019-09-19T17:35:00,AQUA_M-T,SANTA HELENA DE GOIÁS,GOIÁS,Brasil,POINT (-17.858 -50.546)
focos_ams_ontem_hoje_ref.1000ce72-9f67-3f88-8b4c-e7173027c99f,-42.048,-21.058,2019-09-19T16:00:00,AQUA_M-T,ITAPERUNA,RIO DE JANEIRO,Brasil,POINT (-21.058 -42.048)
focos_ams_ontem_hoje_ref.10055ab1-7d86-3d73-95bb-32a445ad15f2,-57.662,-20.834,2019-09-19T17:35:00,AQUA_M-T,PORTO MURTINHO,MATO GROSSO DO SUL,Brasil,POINT (-20.834 -57.662)
focos_ams_ontem_hoje_ref.10163171-5a43-35bd-8ba6-b2b6abfabf04,-50.658,-17.752,2019-09-19T17:35:00,AQUA_M-T,SANTA HELENA DE GOIÁS,GOIÁS,Brasil,POINT (-17.752 -50.658)
focos_ams_ontem_hoje_ref.10174521-295c-37b4-ae6d-87f64b9607a1,-63.064,-9.688,2019-09-19T17:40:00,AQUA_M-T,RIO CRESPO,RONDÔNIA,Brasil,POINT (-9.688 -63.064)
focos_ams_ontem_hoje_ref.1020726b-a8c5-3ab6-baf7-a1754bfe8a2a,-47.238,-18.309,2019-09-20T16:40:00,AQUA_M-T,COROMANDEL,MINAS GERAIS,Brasil,POINT (-18.309 -47.238)
focos_ams_ontem_hoje_ref.1022bc5a-4f18-38e2-9c98-41164a4e572a,-64.104,-27.715,2019-09-19T17:35:00,AQUA_M-T,Banda,Santiago del Estero,Argentina,POINT (-27.715 -64.104)
focos_ams_ontem_hoje_ref.102b81a8-6e09-365e-98b9-cb116111d6d1,-64.785,-16.927,2019-09-19T17:35:00,AQUA_M-T,Carrasco,Cochabamba,Bolivia,POINT (-16.927 -64.785)
focos_ams_ontem_hoje_ref.1036bbb6-27d0-3fec-967a-95c1f0345bb5,-71.101,-8.396,2019-09-19T17:40:00,AQUA_M-T,TARAUACÁ,ACRE,Brasil,POINT (-8.396 -71.101)
focos_ams_ontem_hoje_ref.1040a67f-ea52-3efe-851f-21629191c241,-50.741,-17.948,2019-09-20T16:40:00,AQUA_M-T,RIO VERDE,GOIÁS,Brasil,POINT (-17.948 -50.741)
focos_ams_ontem_hoje_ref.1048c3f2-1c8c-34c0-b704-3c2fb8d77c72,-45.764,-5.929,2019-09-20T16:45:00,AQUA_M-T,GRAJAÚ,MARANHÃO,Brasil,POINT (-5.929 -45.764)
focos_ams_ontem_hoje_ref.104e8cef-5375-3172-b99b-1f033507c255,-59.997,-6.547,2019-09-19T17:40:00,AQUA_M-T,NOVO ARIPUANÃ,AMAZONAS,Brasil,POINT (-6.547 -59.997)
focos_ams_ontem_hoje_ref.104f4fc7-5a1b-34d6-8d31-aa6debf9bbf4,-44.698,-18.146,2019-09-20T16:40:00,AQUA_M-T,CORINTO,MINAS GERAIS,Brasil,POINT (-18.146 -44.698)
focos_ams_ontem_hoje_ref.105de783-eef6-32b8-a544-65c069611fc7,-54.002,-2.992,2019-09-20T16:45:00,AQUA_M-T,URUARÁ,PARÁ,Brasil,POINT (-2.992 -54.002)
focos_ams_ontem_hoje_ref.10620bf8-63db-31a5-95d4-8a02b04e23bd,-71.007,-8.198,2019-09-20T18:25:00,AQUA_M-T,TARAUACÁ,ACRE,Brasil,POINT (-8.198 -71.007)
focos_ams_ontem_hoje_ref.108311f3-7a75-3aca-9457-445b2af3c8ce,-62.151,-15.84,2019-09-19T17:40:00,AQUA_M-T,Ñuflo de Chávez,Santa Cruz,Bolivia,POINT (-15.84 -62.151)
focos_ams_ontem_hoje_ref.10882eb9-8f17-3af9-9895-7e9a2b5ee9c6,-57.58,-9.601,2019-09-19T17:40:00,AQUA_M-T,APIACÁS,MATO GROSSO,Brasil,POINT (-9.601 -57.58)
focos_ams_ontem_hoje_ref.108abfa5-5cd8-3286-a109-d58730bbf28a,-58.95,-27.611,2019-09-19T17:35:00,AQUA_M-T,San Fernando,Chaco,Argentina,POINT (-27.611 -58.95)
focos_ams_ontem_hoje_ref.108b6568-6a6c-3670-a884-800e8c78a085,-56.029,-16.338,2019-09-19T17:35:00,AQUA_M-T,BARÃO DE MELGAÇO,MATO GROSSO,Brasil,POINT (-16.338 -56.029)
focos_ams_ontem_hoje_ref.1090f516-f654-3c64-8d5a-ad5bd5322492,-48.862,-18.116,2019-09-19T17:35:00,AQUA_M-T,ÁGUA LIMPA,GOIÁS,Brasil,POINT (-18.116 -48.862)
focos_ams_ontem_hoje_ref.1093d170-025e-32c4-9fb4-cf83fcc2e21b,-37.656,-6.138,2019-09-19T16:00:00,AQUA_M-T,PATU,RIO GRANDE DO NORTE,Brasil,POINT (-6.138 -37.656)
focos_ams_ontem_hoje_ref.109645a9-0b48-32de-8acf-46a8697d7471,-65.236,-15.601,2019-09-19T17:40:00,AQUA_M-T,Moxos,El Beni,Bolivia,POINT (-15.601 -65.236)
focos_ams_ontem_hoje_ref.10a93799-9fc8-36fa-bd77-60aa88c36ac9,-67.285,-9.893,2019-09-20T18:20:00,AQUA_M-T,SENADOR GUIOMARD,ACRE,Brasil,POINT (-9.893 -67.285)
focos_ams_ontem_hoje_ref.10ad15c1-1b64-33bd-881e-9ca77ebe7bb3,-50.529,-17.905,2019-09-19T17:35:00,AQUA_M-T,SANTA HELENA DE GOIÁS,GOIÁS,Brasil,POINT (-17.905 -50.529)
focos_ams_ontem_hoje_ref.10b1ec22-d230-38e1-9c17-42b81f2dc763,-46.259,-11.583,2019-09-20T16:45:00,AQUA_M-T,NOVO JARDIM,TOCANTINS,Brasil,POINT (-11.583 -46.259)
focos_ams_ontem_hoje_ref.10b2695a-9299-319a-8777-8ff53c02e776,-55.679,1.442,2019-09-20T16:45:00,AQUA_M-T,ORIXIMINÁ,PARÁ,Brasil,POINT (1.442 -55.679)
focos_ams_ontem_hoje_ref.10b433ae-d8c4-3d6e-b59d-5fbf26674c63,-61.796,-16.485,2019-09-19T17:35:00,AQUA_M-T,Ñuflo de Chávez,Santa Cruz,Bolivia,POINT (-16.485 -61.796)
focos_ams_ontem_hoje_ref.10b8a3f5-5e71-390f-98be-418a484746cd,-45.712,-10.531,2019-09-20T16:45:00,AQUA_M-T,FORMOSA DO RIO PRETO,BAHIA,Brasil,POINT (-10.531 -45.712)
focos_ams_ontem_hoje_ref.10bbd057-5939-3d47-9958-bfaf00f58e9a,-43.875,-6.629,2019-09-20T16:45:00,AQUA_M-T,NOVA IORQUE,MARANHÃO,Brasil,POINT (-6.629 -43.875)
focos_ams_ontem_hoje_ref.10bcfef5-cb0b-301d-8dbc-8cb00b0a80ec,-57.527,-19.717,2019-09-20T18:20:00,AQUA_M-T,CORUMBÁ,MATO GROSSO DO SUL,Brasil,POINT (-19.717 -57.527)
focos_ams_ontem_hoje_ref.10bda7b1-9373-31ea-90f8-ba25ecc27d0d,-45.973,-15.953,2019-09-20T16:40:00,AQUA_M-T,ARINOS,MINAS GERAIS,Brasil,POINT (-15.953 -45.973)
focos_ams_ontem_hoje_ref.10cae1a4-9f8e-3655-9c55-4073a4133665,-69.161,-12.171,2019-09-20T18:20:00,AQUA_M-T,Tambopata,Madre de Dios,Peru,POINT (-12.171 -69.161)
focos_ams_ontem_hoje_ref.10cb7c05-9885-3639-8fcf-28cf60948b50,-51.609,-5.669,2019-09-20T16:45:00,AQUA_M-T,SÃO FÉLIX DO XINGU,PARÁ,Brasil,POINT (-5.669 -51.609)
focos_ams_ontem_hoje_ref.10cf902b-0490-3782-bc1e-158e5b2cf1e2,-61.431,-25.524,2019-09-19T17:35:00,AQUA_M-T,Almirante Brown,Chaco,Argentina,POINT (-25.524 -61.431)
focos_ams_ontem_hoje_ref.10d033b7-e7eb-3f52-aec4-6db95c8fa247,-43.149,-6.47,2019-09-20T16:45:00,AQUA_M-T,BARÃO DE GRAJAÚ,MARANHÃO,Brasil,POINT (-6.47 -43.149)
focos_ams_ontem_hoje_ref.10d51f12-5360-3bdd-957c-0cc0496b4f7e,-65.194,-15.727,2019-09-19T17:40:00,AQUA_M-T,Moxos,El Beni,Bolivia,POINT (-15.727 -65.194)
focos_ams_ontem_hoje_ref.10de85b8-4bc5-3649-89ce-ac132ef8c5e7,-50.78,-17.944,2019-09-19T17:35:00,AQUA_M-T,RIO VERDE,GOIÁS,Brasil,POINT (-17.944 -50.78)
focos_ams_ontem_hoje_ref.10e235d7-599b-3d80-a852-53d714e67693,-69.107,-10.222,2019-09-20T18:20:00,AQUA_M-T,SENA MADUREIRA,ACRE,Brasil,POINT (-10.222 -69.107)
focos_ams_ontem_hoje_ref.10f23908-0921-33ad-aa6c-5f2f49b26175,-59.347,-27.854,2019-09-20T18:15:00,AQUA_M-T,San Fernando,Chaco,Argentina,POINT (-27.854 -59.347)
focos_ams_ontem_hoje_ref.10f853ea-1004-3cfa-b7e1-10b105c3dc93,-61.985,-16.427,2019-09-20T18:20:00,AQUA_M-T,Ñuflo de Chávez,Santa Cruz,Bolivia,POINT (-16.427 -61.985)
focos_ams_ontem_hoje_ref.10fc8127-c927-3fd1-a036-f4bc7d336d40,-60.161,-17.316,2019-09-19T17:35:00,AQUA_M-T,Chiquitos,Santa Cruz,Bolivia,POINT (-17.316 -60.161)
focos_ams_ontem_hoje_ref.10fd533f-7b2e-3f13-b1c4-05917b44bc90,-69.112,-11.824,2019-09-20T18:20:00,AQUA_M-T,Tahuamanu,Madre de Dios,Peru,POINT (-11.824 -69.112)
focos_ams_ontem_hoje_ref.1106966d-e44a-349e-8f5b-6479c2e623d7,-58.974,-19.512,2019-09-19T17:35:00,AQUA_M-T,Fuerte Olimpo,Alto Paraguay,Paraguay,POINT (-19.512 -58.974)
focos_ams_ontem_hoje_ref.110e16c6-89ee-3c1a-ad19-7c24de1c8ec6,-48.196,-16.164,2019-09-20T16:40:00,AQUA_M-T,SANTO ANTÔNIO DO DESCOBERTO,GOIÁS,Brasil,POINT (-16.164 -48.196)
focos_ams_ontem_hoje_ref.111ce408-42f4-300e-b984-9b13fefd169e,-43.422,-19.222,2019-09-20T16:40:00,AQUA_M-T,MORRO DO PILAR,MINAS GERAIS,Brasil,POINT (-19.222 -43.422)
focos_ams_ontem_hoje_ref.11206aad-05c1-3b59-be55-59a6115b9bdd,-50.047,-18.287,2019-09-19T17:35:00,AQUA_M-T,BOM JESUS DE GOIÁS,GOIÁS,Brasil,POINT (-18.287 -50.047)
focos_ams_ontem_hoje_ref.1127df3b-226d-3d3b-a0f1-f6473f14dd7e,-44.698,-7.486,2019-09-20T16:45:00,AQUA_M-T,URUÇUÍ,PIAUÍ,Brasil,POINT (-7.486 -44.698)
focos_ams_ontem_hoje_ref.1130a37b-be63-36f6-8007-f724691ad21a,-51.264,-13.277,2019-09-20T16:45:00,AQUA_M-T,RIBEIRÃO CASCALHEIRA,MATO GROSSO,Brasil,POINT (-13.277 -51.264)
focos_ams_ontem_hoje_ref.11429fb1-16e9-33f6-a99d-6d3bb3682992,-42.91,-22.302,2019-09-20T16:40:00,AQUA_M-T,TERESÓPOLIS,RIO DE JANEIRO,Brasil,POINT (-22.302 -42.91)
focos_ams_ontem_hoje_ref.114e2073-5f0e-3cbc-992f-5cfd3b94af27,-60.117,-9.334,2019-09-19T17:40:00,AQUA_M-T,COLNIZA,MATO GROSSO,Brasil,POINT (-9.334 -60.117)
focos_ams_ontem_hoje_ref.114f8ed6-8474-3dbe-8d4c-b56b2b57bdbc,-60.969,-7.717,2019-09-19T17:40:00,AQUA_M-T,NOVO ARIPUANÃ,AMAZONAS,Brasil,POINT (-7.717 -60.969)
focos_ams_ontem_hoje_ref.1152b85d-8700-3363-9bc9-829601b0bbb8,-64.479,-16.863,2019-09-19T17:35:00,AQUA_M-T,Ichilo,Santa Cruz,Bolivia,POINT (-16.863 -64.479)
focos_ams_ontem_hoje_ref.115d07cf-36ab-385f-a496-b60b854f7a17,-43.977,-19.752,2019-09-20T16:40:00,AQUA_M-T,VESPASIANO,MINAS GERAIS,Brasil,POINT (-19.752 -43.977)
focos_ams_ontem_hoje_ref.115e212a-2af9-3d96-be13-fa1d8823fa5d,-44.151,-19.732,2019-09-20T16:40:00,AQUA_M-T,ESMERALDAS,MINAS GERAIS,Brasil,POINT (-19.732 -44.151)
focos_ams_ontem_hoje_ref.116cb548-7ae5-396b-9d90-3312d4193375,-58.035,-18.368,2019-09-19T17:35:00,AQUA_M-T,Chiquitos,Santa Cruz,Bolivia,POINT (-18.368 -58.035)
focos_ams_ontem_hoje_ref.116ede42-14b0-32d5-a8bf-8f671e846d77,-54.305,-1.611,2019-09-20T16:45:00,AQUA_M-T,MONTE ALEGRE,PARÁ,Brasil,POINT (-1.611 -54.305)
focos_ams_ontem_hoje_ref.1181172f-da19-3435-8d89-57c242f13357,-55.298,-6.218,2019-09-19T17:40:00,AQUA_M-T,ALTAMIRA,PARÁ,Brasil,POINT (-6.218 -55.298)
focos_ams_ontem_hoje_ref.1188b698-7e50-359a-8708-b1ea2537e5f6,-48.027,-15.125,2019-09-20T16:40:00,AQUA_M-T,ÁGUA FRIA DE GOIÁS,GOIÁS,Brasil,POINT (-15.125 -48.027)
focos_ams_ontem_hoje_ref.118b6451-1139-36ff-b3ed-e3326ab8ae46,-59.219,-17.525,2019-09-19T17:35:00,AQUA_M-T,José Miguel de Velasco,Santa Cruz,Bolivia,POINT (-17.525 -59.219)
focos_ams_ontem_hoje_ref.11902968-d8ce-3f85-98d8-8a0009ef7ee5,-50.538,-17.9,2019-09-19T17:35:00,AQUA_M-T,SANTA HELENA DE GOIÁS,GOIÁS,Brasil,POINT (-17.9 -50.538)
focos_ams_ontem_hoje_ref.1193fd67-009d-32c6-9102-dcdbe057507a,-45.23,-7.66,2019-09-19T16:00:00,AQUA_M-T,RIBEIRO GONÇALVES,PIAUÍ,Brasil,POINT (-7.66 -45.23)
focos_ams_ontem_hoje_ref.1197da2f-a0f1-34c8-8070-41a2caa93023,-65.048,-11.199,2019-09-19T17:40:00,AQUA_M-T,GUAJARÁ-MIRIM,RONDÔNIA,Brasil,POINT (-11.199 -65.048)
focos_ams_ontem_hoje_ref.119f2530-5d52-37d6-8e37-8aa89aa9c5ca,-49.687,-21.805,2019-09-19T17:35:00,AQUA_M-T,CAFELÂNDIA,SÃO PAULO,Brasil,POINT (-21.805 -49.687)
focos_ams_ontem_hoje_ref.11b7048b-de58-34d2-a752-00fd5c0622af,-64.906,-3.244,2019-09-19T17:40:00,AQUA_M-T,ALVARÃES,AMAZONAS,Brasil,POINT (-3.244 -64.906)
focos_ams_ontem_hoje_ref.11bf7fa7-8943-36c8-bd03-b1f3ea95f028,-48.876,-5.535,2019-09-20T16:45:00,AQUA_M-T,SÃO DOMINGOS DO ARAGUAIA,PARÁ,Brasil,POINT (-5.535 -48.876)
focos_ams_ontem_hoje_ref.11d2aa06-b33d-3619-bf6c-bd8c8145a215,-55.426,-8.178,2019-09-20T16:45:00,AQUA_M-T,NOVO PROGRESSO,PARÁ,Brasil,POINT (-8.178 -55.426)
focos_ams_ontem_hoje_ref.11da8133-f1e5-3dd1-9bc4-77665624a246,-44.89,-5.756,2019-09-20T16:45:00,AQUA_M-T,TUNTUM,MARANHÃO,Brasil,POINT (-5.756 -44.89)
focos_ams_ontem_hoje_ref.11ea4f3e-242c-3120-a436-2b783895de42,-61.656,-3.583,2019-09-19T17:40:00,AQUA_M-T,ANAMÃ,AMAZONAS,Brasil,POINT (-3.583 -61.656)
focos_ams_ontem_hoje_ref.11f8ef63-afff-37f5-b134-41c4a916d5f0,-58.835,-19.721,2019-09-19T17:35:00,AQUA_M-T,Fuerte Olimpo,Alto Paraguay,Paraguay,POINT (-19.721 -58.835)
focos_ams_ontem_hoje_ref.120ea67b-7a64-38d8-8664-88d22efe92f4,-51.608,-18.013,2019-09-19T17:35:00,AQUA_M-T,JATAÍ,GOIÁS,Brasil,POINT (-18.013 -51.608)
focos_ams_ontem_hoje_ref.121d9c99-4637-33b7-978a-5293e1a804f4,-67.679,-14.323,2019-09-20T18:20:00,AQUA_M-T,Abel Iturralde,La Paz,Bolivia,POINT (-14.323 -67.679)
focos_ams_ontem_hoje_ref.12330ff2-6807-331f-9425-e30a8b27feba,-69.053,-13.923,2019-09-20T18:20:00,AQUA_M-T,Sandia,Puno,Peru,POINT (-13.923 -69.053)
focos_ams_ontem_hoje_ref.123ed480-9e6b-3546-baea-d7be449e046e,-60.36,-12.278,2019-09-20T18:20:00,AQUA_M-T,VILHENA,RONDÔNIA,Brasil,POINT (-12.278 -60.36)
focos_ams_ontem_hoje_ref.125efb3f-0ab7-33fe-934c-9d5b2409ae9d,-68.857,-10.563,2019-09-20T18:20:00,AQUA_M-T,XAPURI,ACRE,Brasil,POINT (-10.563 -68.857)
focos_ams_ontem_hoje_ref.12684713-0e32-3a23-85a2-30a1a2be282b,-58.794,-27.7,2019-09-20T18:15:00,AQUA_M-T,Empedrado,Corrientes,Argentina,POINT (-27.7 -58.794)
focos_ams_ontem_hoje_ref.1276bb99-3009-37e1-8044-34877462d1ff,-43.427,-5.387,2019-09-20T16:45:00,AQUA_M-T,MATÕES,MARANHÃO,Brasil,POINT (-5.387 -43.427)
focos_ams_ontem_hoje_ref.12875dee-92af-3553-ac99-17e068681acf,-48.351,-14.57,2019-09-19T17:35:00,AQUA_M-T,NIQUELÂNDIA,GOIÁS,Brasil,POINT (-14.57 -48.351)
focos_ams_ontem_hoje_ref.128a3378-4fc8-3b82-a3c7-b720cc8df854,-43.353,-22.411,2019-09-20T16:40:00,AQUA_M-T,PATY DO ALFERES,RIO DE JANEIRO,Brasil,POINT (-22.411 -43.353)
focos_ams_ontem_hoje_ref.128bd7bd-974c-3c4b-9a61-ef8ce260fe09,-66.921,-13.699,2019-09-19T17:40:00,AQUA_M-T,José Ballivián,El Beni,Bolivia,POINT (-13.699 -66.921)
focos_ams_ontem_hoje_ref.1298d75c-28d2-35e6-a509-f4a4012f0ab4,-42.225,-21.455,2019-09-20T16:40:00,AQUA_M-T,MIRACEMA,RIO DE JANEIRO,Brasil,POINT (-21.455 -42.225)
focos_ams_ontem_hoje_ref.129d9c33-a945-3070-8394-9f30f7c19f89,-40.428,-20.037,2019-09-20T16:40:00,AQUA_M-T,SANTA LEOPOLDINA,ESPÍRITO SANTO,Brasil,POINT (-20.037 -40.428)
focos_ams_ontem_hoje_ref.12b5e0d9-5678-34d7-b664-f9b84b09a1af,-45.508,-9.618,2019-09-20T16:45:00,AQUA_M-T,GILBUÉS,PIAUÍ,Brasil,POINT (-9.618 -45.508)
focos_ams_ontem_hoje_ref.12b70fcd-4368-3347-b65e-9a2a30e53fee,-49.891,-18.336,2019-09-19T17:35:00,AQUA_M-T,ITUMBIARA,GOIÁS,Brasil,POINT (-18.336 -49.891)
focos_ams_ontem_hoje_ref.12b8af4e-40f6-3472-9ebd-c35b936126c8,-40.177,-17.369,2019-09-20T16:40:00,AQUA_M-T,MEDEIROS NETO,BAHIA,Brasil,POINT (-17.369 -40.177)
focos_ams_ontem_hoje_ref.12b8e9da-cb88-3386-84c8-730204a2cb67,-64.201,-11.155,2019-09-19T17:40:00,AQUA_M-T,GUAJARÁ-MIRIM,RONDÔNIA,Brasil,POINT (-11.155 -64.201)
focos_ams_ontem_hoje_ref.12c30086-d241-36e5-885f-072eec638eac,-61.607,-6.005,2019-09-19T17:40:00,AQUA_M-T,MANICORÉ,AMAZONAS,Brasil,POINT (-6.005 -61.607)
focos_ams_ontem_hoje_ref.12d0e503-792c-35dc-84f3-e0f9fc84e9b0,-59.914,-28.534,2019-09-20T18:15:00,AQUA_M-T,Vera,Santa Fe,Argentina,POINT (-28.534 -59.914)
focos_ams_ontem_hoje_ref.13026f3b-5e6f-3964-8bdf-3cdc68ec2e3b,-63.942,-15.371,2019-09-19T17:40:00,AQUA_M-T,Marbán,El Beni,Bolivia,POINT (-15.371 -63.942)
focos_ams_ontem_hoje_ref.13039903-752d-3d97-9544-facd6891418f,-67.128,-8.616,2019-09-19T17:40:00,AQUA_M-T,BOCA DO ACRE,AMAZONAS,Brasil,POINT (-8.616 -67.128)
focos_ams_ontem_hoje_ref.1314cc02-669c-30a4-a71b-6d591333d194,-44.289,-19.705,2019-09-19T16:00:00,AQUA_M-T,ESMERALDAS,MINAS GERAIS,Brasil,POINT (-19.705 -44.289)
focos_ams_ontem_hoje_ref.13150b90-f60a-3a2c-ba15-6bd12ebe38a2,-60.098,-16.314,2019-09-19T17:35:00,AQUA_M-T,José Miguel de Velasco,Santa Cruz,Bolivia,POINT (-16.314 -60.098)
focos_ams_ontem_hoje_ref.1320e103-4b23-3578-9d94-266f7f726e94,-42.958,-19.226,2019-09-20T16:40:00,AQUA_M-T,FERROS,MINAS GERAIS,Brasil,POINT (-19.226 -42.958)
focos_ams_ontem_hoje_ref.1344abd0-bcb6-3715-a607-5d5429cecedd,-62.957,-12.199,2019-09-19T17:40:00,AQUA_M-T,SÃO MIGUEL DO GUAPORÉ,RONDÔNIA,Brasil,POINT (-12.199 -62.957)
focos_ams_ontem_hoje_ref.134b72ad-aeec-3057-ae4a-6c43ff7fabd7,-42.815,-6.397,2019-09-20T16:45:00,AQUA_M-T,AMARANTE,PIAUÍ,Brasil,POINT (-6.397 -42.815)
focos_ams_ontem_hoje_ref.134e19d6-d118-3cbf-84f7-346b5d723691,-45.542,-5.5,2019-09-20T16:45:00,AQUA_M-T,JENIPAPO DOS VIEIRAS,MARANHÃO,Brasil,POINT (-5.5 -45.542)
focos_ams_ontem_hoje_ref.13568dab-e6ea-335d-9744-f129e7c39ddb,-62.971,-27.582,2019-09-19T17:35:00,AQUA_M-T,Moreno,Santiago del Estero,Argentina,POINT (-27.582 -62.971)
focos_ams_ontem_hoje_ref.13602363-8017-3403-b9cd-d177a0a01d6d,-44.726,-7.727,2019-09-20T16:45:00,AQUA_M-T,URUÇUÍ,PIAUÍ,Brasil,POINT (-7.727 -44.726)
focos_ams_ontem_hoje_ref.1374cbe2-39cd-323a-9d6b-4bd40b08b1c0,-43.743,-5.925,2019-09-19T16:00:00,AQUA_M-T,BURITI BRAVO,MARANHÃO,Brasil,POINT (-5.925 -43.743)
focos_ams_ontem_hoje_ref.137c450b-3f59-3b6e-bd98-1fe78d2c9f0e,-58.874,-19.726,2019-09-19T17:35:00,AQUA_M-T,Fuerte Olimpo,Alto Paraguay,Paraguay,POINT (-19.726 -58.874)
focos_ams_ontem_hoje_ref.137cd67c-b7bd-3fa3-ba6f-243f5942c31a,-70.88,-14.91,2019-09-20T18:20:00,AQUA_M-T,Melgar,Puno,Peru,POINT (-14.91 -70.88)
focos_ams_ontem_hoje_ref.137f769b-b1b3-3284-a3b0-0094671fd452,-46.394,-9.405,2019-09-20T16:45:00,AQUA_M-T,ALTO PARNAÍBA,MARANHÃO,Brasil,POINT (-9.405 -46.394)
focos_ams_ontem_hoje_ref.138d79f6-5bde-39db-b9d8-7df01977b073,-51.228,-10.844,2019-09-20T16:45:00,AQUA_M-T,PORTO ALEGRE DO NORTE,MATO GROSSO,Brasil,POINT (-10.844 -51.228)
focos_ams_ontem_hoje_ref.139455dc-09cb-37d9-988c-8a4c2c53a7df,-57.044,-18.756,2019-09-19T17:35:00,AQUA_M-T,CORUMBÁ,MATO GROSSO DO SUL,Brasil,POINT (-18.756 -57.044)
focos_ams_ontem_hoje_ref.139bbc27-1e98-387b-ac05-503fdb7b11c9,-56.83,-1.953,2019-09-19T17:40:00,AQUA_M-T,FARO,PARÁ,Brasil,POINT (-1.953 -56.83)
focos_ams_ontem_hoje_ref.139c2d96-28f1-3064-82b4-2d214fa7fe2d,-64.073,-38.148,2019-09-20T18:15:00,AQUA_M-T,Hucal,La Pampa,Argentina,POINT (-38.148 -64.073)
focos_ams_ontem_hoje_ref.13a55d8d-c6f6-385c-8920-5ed948505eb3,-64.982,-7.51,2019-09-20T18:25:00,AQUA_M-T,LÁBREA,AMAZONAS,Brasil,POINT (-7.51 -64.982)
focos_ams_ontem_hoje_ref.13ae9d03-753a-3299-82a4-970b362ef58f,-66.167,-2.916,2019-09-19T17:40:00,AQUA_M-T,FONTE BOA,AMAZONAS,Brasil,POINT (-2.916 -66.167)
focos_ams_ontem_hoje_ref.13b8aae5-8ce4-3790-b51a-f8b50c2a13e1,-47.875,-10.69,2019-09-20T16:45:00,AQUA_M-T,MONTE DO CARMO,TOCANTINS,Brasil,POINT (-10.69 -47.875)
focos_ams_ontem_hoje_ref.13c9d844-d239-3090-bd18-4a85d0fb0017,-41.748,-20.209,2019-09-20T16:40:00,AQUA_M-T,IÚNA,ESPÍRITO SANTO,Brasil,POINT (-20.209 -41.748)
focos_ams_ontem_hoje_ref.13d8427d-d468-3dcb-a5b9-5130bb0bb41c,-69.013,-10.814,2019-09-20T18:20:00,AQUA_M-T,BRASILÉIA,ACRE,Brasil,POINT (-10.814 -69.013)
focos_ams_ontem_hoje_ref.13e7f91c-0ad8-362d-8ada-e37da3810714,-57.513,-22.439,2019-09-19T17:35:00,AQUA_M-T,San Carlos,Concepción,Paraguay,POINT (-22.439 -57.513)
focos_ams_ontem_hoje_ref.13e93dd2-9821-3fbb-bbb1-b69877f53ee4,-46.559,-5.256,2019-09-19T16:00:00,AQUA_M-T,AMARANTE DO MARANHÃO,MARANHÃO,Brasil,POINT (-5.256 -46.559)
focos_ams_ontem_hoje_ref.13ede8fa-105e-3b82-aaca-66a4b1bf1f23,-42.171,-19.4,2019-09-19T16:00:00,AQUA_M-T,SÃO JOÃO DO ORIENTE,MINAS GERAIS,Brasil,POINT (-19.4 -42.171)
focos_ams_ontem_hoje_ref.1407ee4c-22f2-34eb-a1b6-cfb561db1835,-48.034,-15.077,2019-09-19T17:35:00,AQUA_M-T,ÁGUA FRIA DE GOIÁS,GOIÁS,Brasil,POINT (-15.077 -48.034)
focos_ams_ontem_hoje_ref.140cd307-a736-3d53-b022-c80252ecfd75,-64.401,-30.413,2019-09-19T17:35:00,AQUA_M-T,Ischilín,Córdoba,Argentina,POINT (-30.413 -64.401)
focos_ams_ontem_hoje_ref.140d5960-cddc-39ca-a4f0-2f644ab0e8bd,-56.716,-23.17,2019-09-19T17:35:00,AQUA_M-T,Horqueta,Concepción,Paraguay,POINT (-23.17 -56.716)
focos_ams_ontem_hoje_ref.141c38a5-98bb-3450-954b-20e6b0694548,-72.599,-8.957,2019-09-20T18:25:00,AQUA_M-T,MARECHAL THAUMATURGO,ACRE,Brasil,POINT (-8.957 -72.599)
focos_ams_ontem_hoje_ref.1422c9d6-9716-3845-9e36-5cc4c6a25148,-54.948,-8.633,2019-09-20T16:45:00,AQUA_M-T,ALTAMIRA,PARÁ,Brasil,POINT (-8.633 -54.948)
focos_ams_ontem_hoje_ref.142ce087-27e5-366e-b7de-c7599ce273fa,-51.245,-5.537,2019-09-20T16:45:00,AQUA_M-T,SÃO FÉLIX DO XINGU,PARÁ,Brasil,POINT (-5.537 -51.245)
focos_ams_ontem_hoje_ref.1453cb47-23c1-3fd7-a363-0a71535cc428,-57.42,-25.705,2019-09-20T18:20:00,AQUA_M-T,Carapeguá,Paraguarí,Paraguay,POINT (-25.705 -57.42)
focos_ams_ontem_hoje_ref.145e3b59-c8fd-310b-bc43-f16b695989e4,-54.521,-23.33,2019-09-19T17:35:00,AQUA_M-T,IGUATEMI,MATO GROSSO DO SUL,Brasil,POINT (-23.33 -54.521)
focos_ams_ontem_hoje_ref.145ece9a-d6fe-3a09-b51b-2fc47fb0f727,-47.359,-6.683,2019-09-20T16:45:00,AQUA_M-T,ESTREITO,MARANHÃO,Brasil,POINT (-6.683 -47.359)
focos_ams_ontem_hoje_ref.14681c3b-4615-3547-952e-9a672822c4ca,-72.273,-7.726,2019-09-20T18:25:00,AQUA_M-T,CRUZEIRO DO SUL,ACRE,Brasil,POINT (-7.726 -72.273)
focos_ams_ontem_hoje_ref.1479e675-a259-389a-b161-c48a5ee9d13d,-45.257,-5.728,2019-09-20T16:45:00,AQUA_M-T,BARRA DO CORDA,MARANHÃO,Brasil,POINT (-5.728 -45.257)
focos_ams_ontem_hoje_ref.14883e46-6346-3c8c-ae6b-f2ea6f066fbb,-64.007,-17.523,2019-09-19T17:35:00,AQUA_M-T,Ichilo,Santa Cruz,Bolivia,POINT (-17.523 -64.007)
focos_ams_ontem_hoje_ref.1492a8a8-3812-372b-9312-c03cb9d41dca,-41.305,-14.534,2019-09-19T16:00:00,AQUA_M-T,CARAÍBAS,BAHIA,Brasil,POINT (-14.534 -41.305)
focos_ams_ontem_hoje_ref.14933249-6ec6-3e8b-bf9a-f5cab23757ac,-55.36,-6.51,2019-09-19T17:40:00,AQUA_M-T,ITAITUBA,PARÁ,Brasil,POINT (-6.51 -55.36)
focos_ams_ontem_hoje_ref.149a18fd-cee8-392e-8f2a-8b36d19ee39f,-57.034,-18.755,2019-09-19T17:35:00,AQUA_M-T,CORUMBÁ,MATO GROSSO DO SUL,Brasil,POINT (-18.755 -57.034)
focos_ams_ontem_hoje_ref.149d79c6-8456-3b36-bacd-a2c6697340bd,-54.739,-11.855,2019-09-20T16:45:00,AQUA_M-T,SANTA CARMEM,MATO GROSSO,Brasil,POINT (-11.855 -54.739)
focos_ams_ontem_hoje_ref.14a1e445-1797-3a33-a961-23636674f620,-41.955,-4.403,2019-09-19T16:00:00,AQUA_M-T,PIRIPIRI,PIAUÍ,Brasil,POINT (-4.403 -41.955)
focos_ams_ontem_hoje_ref.14a4a535-adbb-38b2-bb59-6e457db4dec7,-57.282,-19.28,2019-09-19T17:35:00,AQUA_M-T,CORUMBÁ,MATO GROSSO DO SUL,Brasil,POINT (-19.28 -57.282)
focos_ams_ontem_hoje_ref.14a50ac2-ba64-3175-a47b-7e4adfe3a7a9,-49.21,-13.787,2019-09-19T17:40:00,AQUA_M-T,MUTUNÓPOLIS,GOIÁS,Brasil,POINT (-13.787 -49.21)
focos_ams_ontem_hoje_ref.14a93989-ece2-39fe-8b3b-de6365944f3f,-52.979,-15.41,2019-09-20T16:40:00,AQUA_M-T,BARRA DO GARÇAS,MATO GROSSO,Brasil,POINT (-15.41 -52.979)
focos_ams_ontem_hoje_ref.14af1e19-28bb-3686-a0f4-4ca6eb74e318,-50.9,-2.306,2019-09-20T16:45:00,AQUA_M-T,PORTEL,PARÁ,Brasil,POINT (-2.306 -50.9)
focos_ams_ontem_hoje_ref.14b735d5-b4a4-3c1b-9178-cd1819f610fa,-63.92,-26.312,2019-09-20T18:20:00,AQUA_M-T,Pellegrini,Santiago del Estero,Argentina,POINT (-26.312 -63.92)
focos_ams_ontem_hoje_ref.14c9a905-44d0-3d25-877b-edbbb0c54049,-58.234,-10.374,2019-09-19T17:40:00,AQUA_M-T,NOVA BANDEIRANTES,MATO GROSSO,Brasil,POINT (-10.374 -58.234)
focos_ams_ontem_hoje_ref.14edd66e-acc8-38a3-9122-711427d5892a,-43.15,-4.864,2019-09-19T16:00:00,AQUA_M-T,CAXIAS,MARANHÃO,Brasil,POINT (-4.864 -43.15)
focos_ams_ontem_hoje_ref.14f27f11-89a0-3e77-a8d7-c0d09dcb1781,-70.323,-12.883,2019-09-20T18:20:00,AQUA_M-T,Tambopata,Madre de Dios,Peru,POINT (-12.883 -70.323)
focos_ams_ontem_hoje_ref.150cc2e5-9136-3fcd-a7bb-2c15aba4e959,-58.322,-22.432,2019-09-19T17:35:00,AQUA_M-T,Puerto Pinasco,Presidente Hayes,Paraguay,POINT (-22.432 -58.322)
focos_ams_ontem_hoje_ref.15162665-e2c7-364a-b8ab-78ae9e70f124,-59.325,-17.034,2019-09-19T17:35:00,AQUA_M-T,José Miguel de Velasco,Santa Cruz,Bolivia,POINT (-17.034 -59.325)
focos_ams_ontem_hoje_ref.152b3a6a-db54-31ba-8acc-8656520c978f,-71.861,-9.185,2019-09-20T18:25:00,AQUA_M-T,JORDÃO,ACRE,Brasil,POINT (-9.185 -71.861)
focos_ams_ontem_hoje_ref.153febbf-744f-3ee0-bb5b-be07dea623a7,-58.099,-10.242,2019-09-19T17:40:00,AQUA_M-T,NOVA BANDEIRANTES,MATO GROSSO,Brasil,POINT (-10.242 -58.099)
focos_ams_ontem_hoje_ref.1549b55c-9e36-3744-8ccd-1fa708841eb2,-50.798,-11.635,2019-09-20T16:45:00,AQUA_M-T,SÃO FÉLIX DO ARAGUAIA,MATO GROSSO,Brasil,POINT (-11.635 -50.798)
focos_ams_ontem_hoje_ref.155b1ebd-7ea8-32d5-a3fb-b66968fd3bf5,-68.414,-13.689,2019-09-20T18:20:00,AQUA_M-T,Abel Iturralde,La Paz,Bolivia,POINT (-13.689 -68.414)
focos_ams_ontem_hoje_ref.15656730-6707-3d0f-a389-0e1064619db1,-58.044,-2.943,2019-09-20T16:45:00,AQUA_M-T,URUCURITUBA,AMAZONAS,Brasil,POINT (-2.943 -58.044)
focos_ams_ontem_hoje_ref.156a29bb-e144-3169-82d3-dde5c6b0a181,-60.642,-24.998,2019-09-20T18:20:00,AQUA_M-T,Patiño,Formosa,Argentina,POINT (-24.998 -60.642)
focos_ams_ontem_hoje_ref.156cdfa8-b5ef-373f-9e17-0050e2e31f43,-45.275,-7.495,2019-09-20T16:45:00,AQUA_M-T,LORETO,MARANHÃO,Brasil,POINT (-7.495 -45.275)
focos_ams_ontem_hoje_ref.1570fe9d-84f0-3a03-bb25-a93ebb3d8f98,-66.739,-12.468,2019-09-19T17:40:00,AQUA_M-T,José Ballivián,El Beni,Bolivia,POINT (-12.468 -66.739)
focos_ams_ontem_hoje_ref.15715163-f47c-3fd9-9656-0e89aa799d23,-64.281,-27.447,2019-09-19T17:35:00,AQUA_M-T,Banda,Santiago del Estero,Argentina,POINT (-27.447 -64.281)
focos_ams_ontem_hoje_ref.15793ccd-a5c2-35b7-85de-7052fb1c4781,-58.892,-19.436,2019-09-20T18:20:00,AQUA_M-T,Chiquitos,Santa Cruz,Bolivia,POINT (-19.436 -58.892)
focos_ams_ontem_hoje_ref.157d10c1-4dd1-360a-b00b-3190b338b8fd,-64.173,-34.446,2019-09-20T18:15:00,AQUA_M-T,General Roca,Córdoba,Argentina,POINT (-34.446 -64.173)
focos_ams_ontem_hoje_ref.157e757d-39f4-36e4-ba1d-ddd1cd06812d,-62.948,-18.331,2019-09-19T17:35:00,AQUA_M-T,Cordillera,Santa Cruz,Bolivia,POINT (-18.331 -62.948)
focos_ams_ontem_hoje_ref.15805f85-bd65-3c98-8608-36930d83e4d8,-46.228,-5.342,2019-09-19T16:00:00,AQUA_M-T,ARAME,MARANHÃO,Brasil,POINT (-5.342 -46.228)
focos_ams_ontem_hoje_ref.15889f36-916c-3cc8-9060-c17439c0b471,-62.286,-29.533,2019-09-19T17:35:00,AQUA_M-T,Aguirre,Santiago del Estero,Argentina,POINT (-29.533 -62.286)
focos_ams_ontem_hoje_ref.158913bf-e481-30aa-af52-9304b3046263,-65.095,-9.981,2019-09-19T17:40:00,AQUA_M-T,PORTO VELHO,RONDÔNIA,Brasil,POINT (-9.981 -65.095)
focos_ams_ontem_hoje_ref.1589ee59-0d20-319e-abc0-5167561f50ef,-68.37,-32.947,2019-09-20T18:15:00,AQUA_M-T,San Martín,Mendoza,Argentina,POINT (-32.947 -68.37)
focos_ams_ontem_hoje_ref.158ae808-117a-3733-b367-e4088d402695,-48.227,-8.191,2019-09-20T16:45:00,AQUA_M-T,TUPIRATINS,TOCANTINS,Brasil,POINT (-8.191 -48.227)
focos_ams_ontem_hoje_ref.15b4c1fe-8735-3bc9-a981-c190255d74cc,-72.557,-13.589,2019-09-20T18:20:00,AQUA_M-T,Abancay,Apurímac,Peru,POINT (-13.589 -72.557)
focos_ams_ontem_hoje_ref.15bf7f48-fd81-3d82-8088-6134bc17506e,-59.935,-21.059,2019-09-19T17:35:00,AQUA_M-T,General Eugenio A. Garay,Boquerón,Paraguay,POINT (-21.059 -59.935)
focos_ams_ontem_hoje_ref.15c8ddb2-c90b-3e3d-ac81-85fcab52ac40,-70.606,-12.446,2019-09-20T18:20:00,AQUA_M-T,Manu,Madre de Dios,Peru,POINT (-12.446 -70.606)
focos_ams_ontem_hoje_ref.15cea855-d84e-3a0b-b34b-4c1a074ce839,-59.347,-28.855,2019-09-19T17:35:00,AQUA_M-T,General Obligado,Santa Fe,Argentina,POINT (-28.855 -59.347)
focos_ams_ontem_hoje_ref.15d0d250-4175-35a2-846b-c88b36d3f868,-48.236,-8.193,2019-09-20T16:45:00,AQUA_M-T,TUPIRATINS,TOCANTINS,Brasil,POINT (-8.193 -48.236)
focos_ams_ontem_hoje_ref.15df96b0-7538-3df9-bf51-dc683b3b8528,-61.598,-26.577,2019-09-19T17:35:00,AQUA_M-T,Almirante Brown,Chaco,Argentina,POINT (-26.577 -61.598)
focos_ams_ontem_hoje_ref.15e0bf22-7c78-3473-9b7e-f4e68ff67902,-65.158,-15.593,2019-09-19T17:40:00,AQUA_M-T,Moxos,El Beni,Bolivia,POINT (-15.593 -65.158)
focos_ams_ontem_hoje_ref.15fdd7d7-ecb9-3cba-a8d3-bf0d50af6afa,-44.878,-11.596,2019-09-20T16:45:00,AQUA_M-T,RIACHÃO DAS NEVES,BAHIA,Brasil,POINT (-11.596 -44.878)
focos_ams_ontem_hoje_ref.1609b927-d9bd-36ef-beb2-6ec1740bd17d,-41.664,-19.896,2019-09-20T16:40:00,AQUA_M-T,CONCEIÇÃO DE IPANEMA,MINAS GERAIS,Brasil,POINT (-19.896 -41.664)
focos_ams_ontem_hoje_ref.160b25c1-38b3-3450-b36b-fa2297ca8887,-45.153,-5.994,2019-09-20T16:45:00,AQUA_M-T,FERNANDO FALCÃO,MARANHÃO,Brasil,POINT (-5.994 -45.153)
focos_ams_ontem_hoje_ref.160f0f6b-449a-37a3-9b5c-9100f1ffd0d2,-69.411,-11.138,2019-09-19T17:40:00,AQUA_M-T,Federico Román,Pando,Bolivia,POINT (-11.138 -69.411)
focos_ams_ontem_hoje_ref.160f4168-30c7-3978-86c5-43921bf294a3,-55.65,-16.689,2019-09-19T17:35:00,AQUA_M-T,BARÃO DE MELGAÇO,MATO GROSSO,Brasil,POINT (-16.689 -55.65)
focos_ams_ontem_hoje_ref.161f3637-222c-315c-943f-74968d1a5f1f,-38.838,-6.65,2019-09-20T16:45:00,AQUA_M-T,UMARI,CEARÁ,Brasil,POINT (-6.65 -38.838)
focos_ams_ontem_hoje_ref.161ffbd4-8573-3f83-a8e2-10c4dfc66819,-53.522,-4.179,2019-09-20T16:45:00,AQUA_M-T,ALTAMIRA,PARÁ,Brasil,POINT (-4.179 -53.522)
focos_ams_ontem_hoje_ref.1629d5b3-49a9-3a95-b029-54b478bebcb7,-69.393,-12.669,2019-09-19T17:40:00,AQUA_M-T,Tambopata,Madre de Dios,Peru,POINT (-12.669 -69.393)
focos_ams_ontem_hoje_ref.163369bb-94c8-3ae1-8743-eb2c8fcc9090,-56.553,-28.179,2019-09-20T18:15:00,AQUA_M-T,Santo Tomé,Corrientes,Argentina,POINT (-28.179 -56.553)
focos_ams_ontem_hoje_ref.163eb996-44e5-3a1b-b42d-13321ebd4b15,-61.471,-7.778,2019-09-19T17:40:00,AQUA_M-T,MANICORÉ,AMAZONAS,Brasil,POINT (-7.778 -61.471)
focos_ams_ontem_hoje_ref.164846bd-6f05-38b0-ab51-7e9a14a6cf72,-62.233,-36.838,2019-09-20T18:15:00,AQUA_M-T,Guaminí,Buenos Aires,Argentina,POINT (-36.838 -62.233)
focos_ams_ontem_hoje_ref.164d8f9f-97f8-337b-a78d-e1175b592f12,-58.896,-19.685,2019-09-19T17:35:00,AQUA_M-T,Fuerte Olimpo,Alto Paraguay,Paraguay,POINT (-19.685 -58.896)
focos_ams_ontem_hoje_ref.165c2856-514b-32cd-bcce-e6186b8f1637,-47.973,-17.813,2019-09-20T16:40:00,AQUA_M-T,IPAMERI,GOIÁS,Brasil,POINT (-17.813 -47.973)
focos_ams_ontem_hoje_ref.166ab0a0-6223-38e8-ac12-6910d6a35c30,-59.135,-19.148,2019-09-19T17:35:00,AQUA_M-T,Cordillera,Santa Cruz,Bolivia,POINT (-19.148 -59.135)
focos_ams_ontem_hoje_ref.166ae15a-bcc8-312d-93b3-e95772521ded,-61.584,-15.012,2019-09-19T17:40:00,AQUA_M-T,Ñuflo de Chávez,Santa Cruz,Bolivia,POINT (-15.012 -61.584)
focos_ams_ontem_hoje_ref.1674a065-7ac0-3210-adeb-58b588e3e996,-59.465,-7.031,2019-09-19T17:40:00,AQUA_M-T,APUÍ,AMAZONAS,Brasil,POINT (-7.031 -59.465)
focos_ams_ontem_hoje_ref.1676171a-7408-3e22-b454-3b189b26925c,-46.852,-6.068,2019-09-20T16:45:00,AQUA_M-T,LAJEADO NOVO,MARANHÃO,Brasil,POINT (-6.068 -46.852)
focos_ams_ontem_hoje_ref.16793f13-5d5b-3422-a9fa-577b234ab95b,-64.731,-28.253,2019-09-19T17:35:00,AQUA_M-T,Choya,Santiago del Estero,Argentina,POINT (-28.253 -64.731)
focos_ams_ontem_hoje_ref.167dd4aa-6b8c-3296-8d61-9dd84504d305,-47.262,-17.087,2019-09-19T17:35:00,AQUA_M-T,CRISTALINA,GOIÁS,Brasil,POINT (-17.087 -47.262)
focos_ams_ontem_hoje_ref.16a4169e-d118-37a3-b0e2-47ec446141e2,-59.819,-9.999,2019-09-19T17:40:00,AQUA_M-T,ARIPUANÃ,MATO GROSSO,Brasil,POINT (-9.999 -59.819)
